name,address,city,state,zip_code,id,phone,image_url,yelp_url,review_count,rating,lon,lat
Hattie's Tap & Tavern,2918 The Plz,Charlotte,NC,28205,hatties-tap-and-tavern-charlotte,(980) 938-6228,https://s3-media3.fl.yelpcdn.com/bphoto/zANNY_6ziKc4BpQ6DcsgyA/o.jpg,https://www.yelp.com/biz/hatties-tap-and-tavern-charlotte?adjust_creative=VGFRDca0eUa0TQtHKuz9aQ&utm_campaign=yelp_api_v3&utm_medium=api_v3_business_search&utm_source=VGFRDca0eUa0TQtHKuz9aQ,37,4.5,-80.800417,35.237111
The Dog Bar,3307 N Davidson St,Charlotte,NC,28205,the-dog-bar-charlotte,(704) 370-3595,https://s3-media1.fl.yelpcdn.com/bphoto/9-7fzeFzjw3mBivomE5rLw/o.jpg,https://www.yelp.com/biz/the-dog-bar-charlotte?adjust_creative=VGFRDca0eUa0TQtHKuz9aQ&utm_campaign=yelp_api_v3&utm_medium=api_v3_business_search&utm_source=VGFRDca0eUa0TQtHKuz9aQ,87,4,-80.80422,35.24807
The Trap Bar & Billiards,1923 Westinghouse Bvld,Charlotte,NC,28273,the-trap-bar-and-billiards-charlotte,(704) 910-5640,https://s3-media4.fl.yelpcdn.com/bphoto/vZRvnbO_KHkD0OJa_9Phpg/o.jpg,https://www.yelp.com/biz/the-trap-bar-and-billiards-charlotte?adjust_creative=VGFRDca0eUa0TQtHKuz9aQ&utm_campaign=yelp_api_v3&utm_medium=api_v3_business_search&utm_source=VGFRDca0eUa0TQtHKuz9aQ,10,4.5,-80.93697734,35.12751751
T-Bones On the Lake,3990 Charlotte Hwy,Lake Wylie,SC,29710,t-bones-on-the-lake-lake-wylie,(803) 831-0170,https://s3-media3.fl.yelpcdn.com/bphoto/dTEI19L_cgphJ2ymR3_dvg/o.jpg,https://www.yelp.com/biz/t-bones-on-the-lake-lake-wylie?adjust_creative=VGFRDca0eUa0TQtHKuz9aQ&utm_campaign=yelp_api_v3&utm_medium=api_v3_business_search&utm_source=VGFRDca0eUa0TQtHKuz9aQ,139,2.5,-81.04064,35.1069699
Hickory Tavern,13545 Steelcroft Pkwy,Charlotte,NC,28278,hickory-tavern-charlotte-6,(704) 494-7360,https://s3-media1.fl.yelpcdn.com/bphoto/YBfXesg_HlSKhcQ5I8r2iA/o.jpg,https://www.yelp.com/biz/hickory-tavern-charlotte-6?adjust_creative=VGFRDca0eUa0TQtHKuz9aQ&utm_campaign=yelp_api_v3&utm_medium=api_v3_business_search&utm_source=VGFRDca0eUa0TQtHKuz9aQ,76,3,-80.99135,35.10205
Wing King Cafe,13209 Carowinds Blvd,Charlotte,NC,28273,wing-king-cafe-charlotte,(704) 504-1954,https://s3-media3.fl.yelpcdn.com/bphoto/VySqVr7E8ENahH_U_ixOBg/o.jpg,https://www.yelp.com/biz/wing-king-cafe-charlotte?adjust_creative=VGFRDca0eUa0TQtHKuz9aQ&utm_campaign=yelp_api_v3&utm_medium=api_v3_business_search&utm_source=VGFRDca0eUa0TQtHKuz9aQ,129,4,-80.95664,35.11712
Hwy 55 Burgers Shakes & Fries,4847 Shopton Rd,Charlotte,NC,28278,hwy-55-burgers-shakes-and-fries-charlotte-5,(980) 215-4983,https://s3-media3.fl.yelpcdn.com/bphoto/ixttzojJeGlZcgiChyMl4Q/o.jpg,https://www.yelp.com/biz/hwy-55-burgers-shakes-and-fries-charlotte-5?adjust_creative=VGFRDca0eUa0TQtHKuz9aQ&utm_campaign=yelp_api_v3&utm_medium=api_v3_business_search&utm_source=VGFRDca0eUa0TQtHKuz9aQ,59,3,-80.9635474,35.171097
Piedmont Social House,2135 Ayrsley Town Blvd,Charlotte,NC,28273,piedmont-social-house-charlotte,(704) 912-5160,https://s3-media4.fl.yelpcdn.com/bphoto/TUU6n0fMFB1xJ7YcvkiAEw/o.jpg,https://www.yelp.com/biz/piedmont-social-house-charlotte?adjust_creative=VGFRDca0eUa0TQtHKuz9aQ&utm_campaign=yelp_api_v3&utm_medium=api_v3_business_search&utm_source=VGFRDca0eUa0TQtHKuz9aQ,165,3.5,-80.93380737,35.13734818
Murphy's Kitchen & Tap,445 W Trade St,charlotte,NC,28202,murphys-kitchen-and-tap-charlotte-2,(704) 332-0557,https://s3-media4.fl.yelpcdn.com/bphoto/T1fzZ4h-65sdYFwmQterUw/o.jpg,https://www.yelp.com/biz/murphys-kitchen-and-tap-charlotte-2?adjust_creative=VGFRDca0eUa0TQtHKuz9aQ&utm_campaign=yelp_api_v3&utm_medium=api_v3_business_search&utm_source=VGFRDca0eUa0TQtHKuz9aQ,79,4.5,-80.84721185,35.23023223
Rooney's Market,2127 Ayrsley Town Blvd,Charlotte,NC,28273,rooneys-market-charlotte,(980) 938-4910,https://s3-media4.fl.yelpcdn.com/bphoto/Qe28PWPzO2UJFw7QOwo5kQ/o.jpg,https://www.yelp.com/biz/rooneys-market-charlotte?adjust_creative=VGFRDca0eUa0TQtHKuz9aQ&utm_campaign=yelp_api_v3&utm_medium=api_v3_business_search&utm_source=VGFRDca0eUa0TQtHKuz9aQ,29,4,-80.93263245,35.13798904
VBGB Beer Hall and Garden,920 Hamilton St,Charlotte,NC,28206,vbgb-beer-hall-and-garden-charlotte-2,(704) 333-4111,https://s3-media1.fl.yelpcdn.com/bphoto/0EnXbNtqTinQ6KIEhMiigQ/o.jpg,https://www.yelp.com/biz/vbgb-beer-hall-and-garden-charlotte-2?adjust_creative=VGFRDca0eUa0TQtHKuz9aQ&utm_campaign=yelp_api_v3&utm_medium=api_v3_business_search&utm_source=VGFRDca0eUa0TQtHKuz9aQ,291,4.5,-80.845087,35.240667
Mac's Speed Shop,2414 Sandy Porter Rd,Charlotte,NC,28273,macs-speed-shop-charlotte-2,(704) 504-8500,https://s3-media4.fl.yelpcdn.com/bphoto/zREPAzHIhNmJB1X-CEcqbA/o.jpg,https://www.yelp.com/biz/macs-speed-shop-charlotte-2?adjust_creative=VGFRDca0eUa0TQtHKuz9aQ&utm_campaign=yelp_api_v3&utm_medium=api_v3_business_search&utm_source=VGFRDca0eUa0TQtHKuz9aQ,225,3.5,-80.94004,35.136
Chili's,8164 S Tryon St,Charlotte,NC,28273,chilis-charlotte-4,(704) 583-5490,https://s3-media1.fl.yelpcdn.com/bphoto/AckwqleZKoTw6xEUDy21pA/o.jpg,https://www.yelp.com/biz/chilis-charlotte-4?adjust_creative=VGFRDca0eUa0TQtHKuz9aQ&utm_campaign=yelp_api_v3&utm_medium=api_v3_business_search&utm_source=VGFRDca0eUa0TQtHKuz9aQ,36,2.5,-80.933815,35.144202
The Randazzos' Grid Iron,13105 S Tryon St,Charlotte,NC,28278,the-randazzos-grid-iron-charlotte-2,(704) 588-1130,https://s3-media3.fl.yelpcdn.com/bphoto/2NVxEXDiUePLnrks-ajL6g/o.jpg,https://www.yelp.com/biz/the-randazzos-grid-iron-charlotte-2?adjust_creative=VGFRDca0eUa0TQtHKuz9aQ&utm_campaign=yelp_api_v3&utm_medium=api_v3_business_search&utm_source=VGFRDca0eUa0TQtHKuz9aQ,68,3,-80.99083,35.10102
Sweetwater Sports Bar & Grill,4582 Charlotte Hwy,Lake Wylie,SC,29710,sweetwater-sports-bar-and-grill-lake-wylie,(803) 831-1788,https://s3-media3.fl.yelpcdn.com/bphoto/pGiAWnNhozYdVQLfTi64SQ/o.jpg,https://www.yelp.com/biz/sweetwater-sports-bar-and-grill-lake-wylie?adjust_creative=VGFRDca0eUa0TQtHKuz9aQ&utm_campaign=yelp_api_v3&utm_medium=api_v3_business_search&utm_source=VGFRDca0eUa0TQtHKuz9aQ,69,4,-81.05890656,35.11590195
Wild Wing Cafe,2132 Ayrsley Town Blvd,Charlotte,NC,28273,wild-wing-cafe-charlotte-2,(980) 297-7000,https://s3-media3.fl.yelpcdn.com/bphoto/srEdrk10J0DaFfKBEVrnRA/o.jpg,https://www.yelp.com/biz/wild-wing-cafe-charlotte-2?adjust_creative=VGFRDca0eUa0TQtHKuz9aQ&utm_campaign=yelp_api_v3&utm_medium=api_v3_business_search&utm_source=VGFRDca0eUa0TQtHKuz9aQ,101,3,-80.93248732,35.13845623
Moo & Brew,1300 Central Ave,Charlotte,NC,28205,moo-and-brew-charlotte,(980) 585-4148,https://s3-media1.fl.yelpcdn.com/bphoto/pz71zAYZdxFMDOfCDwTI7w/o.jpg,https://www.yelp.com/biz/moo-and-brew-charlotte?adjust_creative=VGFRDca0eUa0TQtHKuz9aQ&utm_campaign=yelp_api_v3&utm_medium=api_v3_business_search&utm_source=VGFRDca0eUa0TQtHKuz9aQ,157,4,-80.81695519,35.22080737
Just Fresh,14136 Rivergate Pkwy,Charlotte,NC,28273,just-fresh-charlotte-5,(704) 583-8323,https://s3-media2.fl.yelpcdn.com/bphoto/81rcvhZ2dzz3CTiKdekMTQ/o.jpg,https://www.yelp.com/biz/just-fresh-charlotte-5?adjust_creative=VGFRDca0eUa0TQtHKuz9aQ&utm_campaign=yelp_api_v3&utm_medium=api_v3_business_search&utm_source=VGFRDca0eUa0TQtHKuz9aQ,50,3.5,-80.9852756,35.1036832
O'Charley's Restaurant & Bar,8140 S Tryon St,Charlotte,NC,28273,o-charleys-restaurant-and-bar-charlotte,(704) 588-2737,https://s3-media2.fl.yelpcdn.com/bphoto/z_BnbRxtHj6tE5mwrg6kZA/o.jpg,https://www.yelp.com/biz/o-charleys-restaurant-and-bar-charlotte?adjust_creative=VGFRDca0eUa0TQtHKuz9aQ&utm_campaign=yelp_api_v3&utm_medium=api_v3_business_search&utm_source=VGFRDca0eUa0TQtHKuz9aQ,61,2.5,-80.930491,35.143458
Pintville Craft Beer,329 Main St,Pineville,NC,28134,pintville-craft-beer-pineville,(704) 835-1089,https://s3-media4.fl.yelpcdn.com/bphoto/qPAQzXXOk_yholjVbrtX0w/o.jpg,https://www.yelp.com/biz/pintville-craft-beer-pineville?adjust_creative=VGFRDca0eUa0TQtHKuz9aQ&utm_campaign=yelp_api_v3&utm_medium=api_v3_business_search&utm_source=VGFRDca0eUa0TQtHKuz9aQ,46,4.5,-80.8909583,35.0855837
Pearlz Oyster Bar,7804 Rea Rd,Charlotte,NC,28277,pearlz-oyster-bar-charlotte,(980) 498-7247,https://s3-media3.fl.yelpcdn.com/bphoto/9N6ZzC5-PfFneI9RlCI_4Q/o.jpg,https://www.yelp.com/biz/pearlz-oyster-bar-charlotte?adjust_creative=VGFRDca0eUa0TQtHKuz9aQ&utm_campaign=yelp_api_v3&utm_medium=api_v3_business_search&utm_source=VGFRDca0eUa0TQtHKuz9aQ,97,4,-80.81446585,35.06086574
Growler USA - America's Microbrew Pub,12206 Copper Way,Charlotte,NC,28277,growler-usa-americas-microbrew-pub-charlotte-2,(704) 910-6181,https://s3-media2.fl.yelpcdn.com/bphoto/Zeb3FAt4ekSuvWxHAYjlUw/o.jpg,https://www.yelp.com/biz/growler-usa-americas-microbrew-pub-charlotte-2?adjust_creative=VGFRDca0eUa0TQtHKuz9aQ&utm_campaign=yelp_api_v3&utm_medium=api_v3_business_search&utm_source=VGFRDca0eUa0TQtHKuz9aQ,49,4,-80.84407,35.07085
Hawthornes New York Pizza & Bar,8410 Rea Rd,Charlotte,NC,28277,hawthornes-new-york-pizza-and-bar-charlotte,(980) 272-9494,https://s3-media2.fl.yelpcdn.com/bphoto/475plfVkCUSwSD5-3-XuZg/o.jpg,https://www.yelp.com/biz/hawthornes-new-york-pizza-and-bar-charlotte?adjust_creative=VGFRDca0eUa0TQtHKuz9aQ&utm_campaign=yelp_api_v3&utm_medium=api_v3_business_search&utm_source=VGFRDca0eUa0TQtHKuz9aQ,122,4,-80.81260733,35.05850561
Fox & Hound,15235 John J Delaney Dr,Charlotte,NC,28277,fox-and-hound-charlotte-2,(704) 544-8902,https://s3-media2.fl.yelpcdn.com/bphoto/JbDmZq_97W3xsz_K3PMzJQ/o.jpg,https://www.yelp.com/biz/fox-and-hound-charlotte-2?adjust_creative=VGFRDca0eUa0TQtHKuz9aQ&utm_campaign=yelp_api_v3&utm_medium=api_v3_business_search&utm_source=VGFRDca0eUa0TQtHKuz9aQ,56,2.5,-80.848298,35.053568
JJ's Red Hots - Ballantyne,15105 John J Delaney Dr,Charlotte,NC,28277,jjs-red-hots-ballantyne-charlotte,(980) 335-0601,https://s3-media4.fl.yelpcdn.com/bphoto/mkPpbcNAIpS4Uh10ESmgfw/o.jpg,https://www.yelp.com/biz/jjs-red-hots-ballantyne-charlotte?adjust_creative=VGFRDca0eUa0TQtHKuz9aQ&utm_campaign=yelp_api_v3&utm_medium=api_v3_business_search&utm_source=VGFRDca0eUa0TQtHKuz9aQ,118,4,-80.8471264,35.0531562
Chili's,9730 Rea Rd,Charlotte,NC,28277,chilis-charlotte-6,(704) 543-5353,https://s3-media2.fl.yelpcdn.com/bphoto/V14biv16tlcVUB3iYDCH8w/o.jpg,https://www.yelp.com/biz/chilis-charlotte-6?adjust_creative=VGFRDca0eUa0TQtHKuz9aQ&utm_campaign=yelp_api_v3&utm_medium=api_v3_business_search&utm_source=VGFRDca0eUa0TQtHKuz9aQ,34,3,-80.80533,35.0362099
Blackfinn Ameripub,14825 Ballantyne Village Way,Charlotte,NC,28277,blackfinn-ameripub-charlotte-2,(704) 900-6095,https://s3-media4.fl.yelpcdn.com/bphoto/bnFPYMUnjRXhSa3NfpJoTg/o.jpg,https://www.yelp.com/biz/blackfinn-ameripub-charlotte-2?adjust_creative=VGFRDca0eUa0TQtHKuz9aQ&utm_campaign=yelp_api_v3&utm_medium=api_v3_business_search&utm_source=VGFRDca0eUa0TQtHKuz9aQ,53,3,-80.8513905,35.0526235
The Rusty Onion,6654 Carmel Rd,Charlotte,NC,28226,the-rusty-onion-charlotte,(980) 219-7079,https://s3-media2.fl.yelpcdn.com/bphoto/4w27aO9KbGfh6KrT_6wpcw/o.jpg,https://www.yelp.com/biz/the-rusty-onion-charlotte?adjust_creative=VGFRDca0eUa0TQtHKuz9aQ&utm_campaign=yelp_api_v3&utm_medium=api_v3_business_search&utm_source=VGFRDca0eUa0TQtHKuz9aQ,115,3.5,-80.847225,35.085973
Stewart Penick's Terrace - Ballantyne,14815 Ballantyne Village Way,Charlotte,NC,28277,stewart-penicks-terrace-ballantyne-charlotte-2,(704) 369-5190,https://s3-media2.fl.yelpcdn.com/bphoto/1nFSD5KFvmCYGFqUceXmGw/o.jpg,https://www.yelp.com/biz/stewart-penicks-terrace-ballantyne-charlotte-2?adjust_creative=VGFRDca0eUa0TQtHKuz9aQ&utm_campaign=yelp_api_v3&utm_medium=api_v3_business_search&utm_source=VGFRDca0eUa0TQtHKuz9aQ,293,3.5,-80.85160945,35.05347507
Hickory Tavern,12210 Copper Way,Charlotte,NC,28277,hickory-tavern-charlotte-7,(704) 295-9009,https://s3-media2.fl.yelpcdn.com/bphoto/4hZm5JFIGYhIvH2H7VJN_g/o.jpg,https://www.yelp.com/biz/hickory-tavern-charlotte-7?adjust_creative=VGFRDca0eUa0TQtHKuz9aQ&utm_campaign=yelp_api_v3&utm_medium=api_v3_business_search&utm_source=VGFRDca0eUa0TQtHKuz9aQ,105,3.5,-80.84413829,35.07115945
131 Main,9886 Rea Rd,Charlotte,NC,28277,131-main-charlotte,(704) 544-0131,https://s3-media3.fl.yelpcdn.com/bphoto/EhkQu4Z6f7jmNJQAW_bLzA/o.jpg,https://www.yelp.com/biz/131-main-charlotte?adjust_creative=VGFRDca0eUa0TQtHKuz9aQ&utm_campaign=yelp_api_v3&utm_medium=api_v3_business_search&utm_source=VGFRDca0eUa0TQtHKuz9aQ,246,4,-80.809227,35.034106
Duckworth's Grill & Taphouse,14015 Conlan Cir,Charlotte,NC,28277,duckworths-grill-and-taphouse-charlotte-2,(704) 752-7284,https://s3-media4.fl.yelpcdn.com/bphoto/2iNMsku8Ui1xFkbdgRCCLA/o.jpg,https://www.yelp.com/biz/duckworths-grill-and-taphouse-charlotte-2?adjust_creative=VGFRDca0eUa0TQtHKuz9aQ&utm_campaign=yelp_api_v3&utm_medium=api_v3_business_search&utm_source=VGFRDca0eUa0TQtHKuz9aQ,206,3.5,-80.85288137,35.05618416
Brazwell's Premium Pub,11318 North Community House Rd,Charlotte,NC,28277,brazwells-premium-pub-charlotte-3,(704) 817-5554,https://s3-media1.fl.yelpcdn.com/bphoto/7Hd6Md0JeZz1fYD3p7CwxQ/o.jpg,https://www.yelp.com/biz/brazwells-premium-pub-charlotte-3?adjust_creative=VGFRDca0eUa0TQtHKuz9aQ&utm_campaign=yelp_api_v3&utm_medium=api_v3_business_search&utm_source=VGFRDca0eUa0TQtHKuz9aQ,79,3,-80.8352312,35.0552852
The Lodge,16640 Hawfield Way Dr,Charlotte,NC,28277,the-lodge-charlotte-4,(704) 752-0035,https://s3-media3.fl.yelpcdn.com/bphoto/nzNCbeuwWg0Uw19iwsDAzQ/o.jpg,https://www.yelp.com/biz/the-lodge-charlotte-4?adjust_creative=VGFRDca0eUa0TQtHKuz9aQ&utm_campaign=yelp_api_v3&utm_medium=api_v3_business_search&utm_source=VGFRDca0eUa0TQtHKuz9aQ,31,3,-80.8472968,35.0233254
Char Bar No 7,6300 Carmel Rd,Charlotte,NC,28226,char-bar-no-7-charlotte,(704) 540-4722,https://s3-media4.fl.yelpcdn.com/bphoto/BQXL-9Yr8MzaBjz8PSsimQ/o.jpg,https://www.yelp.com/biz/char-bar-no-7-charlotte?adjust_creative=VGFRDca0eUa0TQtHKuz9aQ&utm_campaign=yelp_api_v3&utm_medium=api_v3_business_search&utm_source=VGFRDca0eUa0TQtHKuz9aQ,81,3.5,-80.84592,35.09125
Hickory Tavern,11504 Providence Rd,Charlotte,NC,28104,hickory-tavern-charlotte,(704) 847-4408,https://s3-media4.fl.yelpcdn.com/bphoto/45cK-nSdg9KNwmzSK1ax_w/o.jpg,https://www.yelp.com/biz/hickory-tavern-charlotte?adjust_creative=VGFRDca0eUa0TQtHKuz9aQ&utm_campaign=yelp_api_v3&utm_medium=api_v3_business_search&utm_source=VGFRDca0eUa0TQtHKuz9aQ,57,3,-80.769892,35.054113
Great Wall Of China South,6666 Carmel Rd,Charlotte,NC,28226,great-wall-of-china-south-charlotte-2,(704) 542-5409,https://s3-media2.fl.yelpcdn.com/bphoto/IIfxMt3J-mLZO2XziDS4dg/o.jpg,https://www.yelp.com/biz/great-wall-of-china-south-charlotte-2?adjust_creative=VGFRDca0eUa0TQtHKuz9aQ&utm_campaign=yelp_api_v3&utm_medium=api_v3_business_search&utm_source=VGFRDca0eUa0TQtHKuz9aQ,111,3.5,-80.8461799,35.0864818
Mellow Mushroom,14835 Ballantyne Village Way,Charlotte,NC,28277,mellow-mushroom-charlotte-11,(704) 369-5300,https://s3-media2.fl.yelpcdn.com/bphoto/dRGyjO8VzE7Pio1R92cQfA/o.jpg,https://www.yelp.com/biz/mellow-mushroom-charlotte-11?adjust_creative=VGFRDca0eUa0TQtHKuz9aQ&utm_campaign=yelp_api_v3&utm_medium=api_v3_business_search&utm_source=VGFRDca0eUa0TQtHKuz9aQ,187,3,-80.851277,35.053717
Chili's,8302 Pineville-Matthews Rd,Charlotte,NC,28226,chilis-charlotte-10,(704) 543-6265,https://s3-media1.fl.yelpcdn.com/bphoto/rite0k5VVYx7iHPEUP5grw/o.jpg,https://www.yelp.com/biz/chilis-charlotte-10?adjust_creative=VGFRDca0eUa0TQtHKuz9aQ&utm_campaign=yelp_api_v3&utm_medium=api_v3_business_search&utm_source=VGFRDca0eUa0TQtHKuz9aQ,34,2.5,-80.85922241,35.08795929
Waffle House,2125 W Arrowood Rd,Charlotte,NC,28217,waffle-house-charlotte-15,(704) 527-3187,https://s3-media4.fl.yelpcdn.com/bphoto/0EXQCaloEiwMomWO30WVuQ/o.jpg,https://www.yelp.com/biz/waffle-house-charlotte-15?adjust_creative=VGFRDca0eUa0TQtHKuz9aQ&utm_campaign=yelp_api_v3&utm_medium=api_v3_business_search&utm_source=VGFRDca0eUa0TQtHKuz9aQ,12,2.5,-80.92404205,35.14581346
Sugar Creek Brewing Company,215 Southside Dr,Charlotte,NC,28217,sugar-creek-brewing-company-charlotte-2,(704) 521-3333,https://s3-media2.fl.yelpcdn.com/bphoto/OJksJwVfM7DIsH3qyoIO4Q/o.jpg,https://www.yelp.com/biz/sugar-creek-brewing-company-charlotte-2?adjust_creative=VGFRDca0eUa0TQtHKuz9aQ&utm_campaign=yelp_api_v3&utm_medium=api_v3_business_search&utm_source=VGFRDca0eUa0TQtHKuz9aQ,120,4.5,-80.88092,35.185489
Carmellas Pizza Grill,3150 Hwy 21,Fort Mill,SC,29715,carmellas-pizza-grill-fort-mill,(803) 802-4404,https://s3-media3.fl.yelpcdn.com/bphoto/u3H1UgyhdBDmE4PQabS_MA/o.jpg,https://www.yelp.com/biz/carmellas-pizza-grill-fort-mill?adjust_creative=VGFRDca0eUa0TQtHKuz9aQ&utm_campaign=yelp_api_v3&utm_medium=api_v3_business_search&utm_source=VGFRDca0eUa0TQtHKuz9aQ,57,3,-80.9345131,35.0779293
Chili's,5521 Westpark Dr,Charlotte,NC,28217,chilis-charlotte-5,(704) 522-1036,https://s3-media3.fl.yelpcdn.com/bphoto/sVWgiVzv5s51tdPDlFggVw/o.jpg,https://www.yelp.com/biz/chilis-charlotte-5?adjust_creative=VGFRDca0eUa0TQtHKuz9aQ&utm_campaign=yelp_api_v3&utm_medium=api_v3_business_search&utm_source=VGFRDca0eUa0TQtHKuz9aQ,34,3,-80.887,35.16203
Three Spirits Brewery,5046 Old Pineville Rd,Charlotte,NC,28217,three-spirits-brewery-charlotte-2,(980) 207-4881,https://s3-media1.fl.yelpcdn.com/bphoto/g1VJmE0a16TJxHWaersJqQ/o.jpg,https://www.yelp.com/biz/three-spirits-brewery-charlotte-2?adjust_creative=VGFRDca0eUa0TQtHKuz9aQ&utm_campaign=yelp_api_v3&utm_medium=api_v3_business_search&utm_source=VGFRDca0eUa0TQtHKuz9aQ,45,4,-80.8793263,35.1716594
Thirsty Nomad Brewing,4402 Stuart Andrew Blvd,Charlotte,NC,28217,thirsty-nomad-brewing-charlotte,(704) 940-0947,https://s3-media1.fl.yelpcdn.com/bphoto/iEYj4woEd0aO3u3Fdv2dLg/o.jpg,https://www.yelp.com/biz/thirsty-nomad-brewing-charlotte?adjust_creative=VGFRDca0eUa0TQtHKuz9aQ&utm_campaign=yelp_api_v3&utm_medium=api_v3_business_search&utm_source=VGFRDca0eUa0TQtHKuz9aQ,20,4,-80.89100227,35.18843071
Rack'em Pub & Billiards,1898 Windsor Square Dr,Matthews,NC,28105,rackem-pub-and-billiards-matthews,(704) 847-7665,https://s3-media3.fl.yelpcdn.com/bphoto/eZT50K1AKG2n4wBW9_Xy-w/o.jpg,https://www.yelp.com/biz/rackem-pub-and-billiards-matthews?adjust_creative=VGFRDca0eUa0TQtHKuz9aQ&utm_campaign=yelp_api_v3&utm_medium=api_v3_business_search&utm_source=VGFRDca0eUa0TQtHKuz9aQ,12,4,-80.70881,35.13411
Seaboard Taproom and Wine Bar,213 N Trade St,Matthews,NC,28105,seaboard-taproom-and-wine-bar-matthews,(704) 246-8323,https://s3-media2.fl.yelpcdn.com/bphoto/I4yLI4fEdHWPF1PrNpMVmg/o.jpg,https://www.yelp.com/biz/seaboard-taproom-and-wine-bar-matthews?adjust_creative=VGFRDca0eUa0TQtHKuz9aQ&utm_campaign=yelp_api_v3&utm_medium=api_v3_business_search&utm_source=VGFRDca0eUa0TQtHKuz9aQ,30,4.5,-80.72138,35.11764
Whooli's Grill,7146 E Independence Blvd,Charlotte,NC,28227,whoolis-grill-charlotte,(704) 535-1388,https://s3-media3.fl.yelpcdn.com/bphoto/T5KB4i5bBvmHJLbxqFqnwA/o.jpg,https://www.yelp.com/biz/whoolis-grill-charlotte?adjust_creative=VGFRDca0eUa0TQtHKuz9aQ&utm_campaign=yelp_api_v3&utm_medium=api_v3_business_search&utm_source=VGFRDca0eUa0TQtHKuz9aQ,44,4,-80.7406213,35.1635352
Kristophers Bar & Restaurant,250 N Trade St,Matthews,NC,28105,kristophers-bar-and-restaurant-matthews,(704) 845-6200,https://s3-media3.fl.yelpcdn.com/bphoto/OKPdX6Duc-jt88f2WGJVCQ/o.jpg,https://www.yelp.com/biz/kristophers-bar-and-restaurant-matthews?adjust_creative=VGFRDca0eUa0TQtHKuz9aQ&utm_campaign=yelp_api_v3&utm_medium=api_v3_business_search&utm_source=VGFRDca0eUa0TQtHKuz9aQ,76,3.5,-80.7201767,35.1177101
Jekyll & Hyde Taphouse and Grill,316 N Trade St,Matthews,NC,28105,jekyll-and-hyde-taphouse-and-grill-matthews,(704) 846-4933,https://s3-media4.fl.yelpcdn.com/bphoto/dPXYoiWI_ytPBcsqTbL00w/o.jpg,https://www.yelp.com/biz/jekyll-and-hyde-taphouse-and-grill-matthews?adjust_creative=VGFRDca0eUa0TQtHKuz9aQ&utm_campaign=yelp_api_v3&utm_medium=api_v3_business_search&utm_source=VGFRDca0eUa0TQtHKuz9aQ,98,3.5,-80.71916962,35.11872101
Chili's,2521 Sardis Rd N,Charlotte,NC,28227,chilis-charlotte-8,(704) 847-7849,https://s3-media4.fl.yelpcdn.com/bphoto/2xEP2dL5FO1-QQg2cx6TZg/o.jpg,https://www.yelp.com/biz/chilis-charlotte-8?adjust_creative=VGFRDca0eUa0TQtHKuz9aQ&utm_campaign=yelp_api_v3&utm_medium=api_v3_business_search&utm_source=VGFRDca0eUa0TQtHKuz9aQ,45,2,-80.72553,35.14719
Barking Duck Brewing,4400 Morris Park Dr,Mint Hill,NC,28227,barking-duck-brewing-mint-hill,(980) 498-7505,https://s3-media1.fl.yelpcdn.com/bphoto/FLNrdymE5m4Vgi4a5vVflQ/o.jpg,https://www.yelp.com/biz/barking-duck-brewing-mint-hill?adjust_creative=VGFRDca0eUa0TQtHKuz9aQ&utm_campaign=yelp_api_v3&utm_medium=api_v3_business_search&utm_source=VGFRDca0eUa0TQtHKuz9aQ,10,4,-80.68,35.15247
Fuddruckers,1643 Matthews-Township Pkwy,Matthews,NC,28105,fuddruckers-matthews,(704) 849-6360,https://s3-media2.fl.yelpcdn.com/bphoto/utdkhfHOlKkGGTLXzTr4dQ/o.jpg,https://www.yelp.com/biz/fuddruckers-matthews?adjust_creative=VGFRDca0eUa0TQtHKuz9aQ&utm_campaign=yelp_api_v3&utm_medium=api_v3_business_search&utm_source=VGFRDca0eUa0TQtHKuz9aQ,38,3.5,-80.710076,35.123349
Beantown Tavern,130 Matthews Station St,Matthews,NC,28104,beantown-tavern-matthews,(704) 849-2023,https://s3-media3.fl.yelpcdn.com/bphoto/3S9O1-OivbbvCMVOiz4qHQ/o.jpg,https://www.yelp.com/biz/beantown-tavern-matthews?adjust_creative=VGFRDca0eUa0TQtHKuz9aQ&utm_campaign=yelp_api_v3&utm_medium=api_v3_business_search&utm_source=VGFRDca0eUa0TQtHKuz9aQ,102,2.5,-80.72041713,35.11726141
Texas Roadhouse,10450 E. Independence Blvd.,Matthews,NC,28105,texas-roadhouse-matthews,(704) 814-0285,https://s3-media4.fl.yelpcdn.com/bphoto/7WcKFLHL8_W8kFZsv6R3jg/o.jpg,https://www.yelp.com/biz/texas-roadhouse-matthews?adjust_creative=VGFRDca0eUa0TQtHKuz9aQ&utm_campaign=yelp_api_v3&utm_medium=api_v3_business_search&utm_source=VGFRDca0eUa0TQtHKuz9aQ,99,3.5,-80.7062836,35.1259804
Rusty Bucket Restaurant & Tavern,4810 Ashley Park Ln,Charlotte,NC,28210,rusty-bucket-restaurant-and-tavern-charlotte,(704) 643-8535,https://s3-media2.fl.yelpcdn.com/bphoto/WgXI7mjExJyRdJaBgoSWtA/o.jpg,https://www.yelp.com/biz/rusty-bucket-restaurant-and-tavern-charlotte?adjust_creative=VGFRDca0eUa0TQtHKuz9aQ&utm_campaign=yelp_api_v3&utm_medium=api_v3_business_search&utm_source=VGFRDca0eUa0TQtHKuz9aQ,77,3.5,-80.83045197,35.14648438
The Common Market Oakwold,4420 Monroe Rd,Charlotte,NC,28205,the-common-market-oakwold-charlotte,(980) 498-0523,https://s3-media2.fl.yelpcdn.com/bphoto/oGZZGlSfTN-4W0TdxQO-AA/o.jpg,https://www.yelp.com/biz/the-common-market-oakwold-charlotte?adjust_creative=VGFRDca0eUa0TQtHKuz9aQ&utm_campaign=yelp_api_v3&utm_medium=api_v3_business_search&utm_source=VGFRDca0eUa0TQtHKuz9aQ,21,4.5,-80.78604,35.19347
Cajun Yard Dog,8036 Providence Rd,Charlotte,NC,28277,cajun-yard-dog-charlotte-2,(704) 752-1750,https://s3-media2.fl.yelpcdn.com/bphoto/c5svSfbZTSEi5F8fv4n3og/o.jpg,https://www.yelp.com/biz/cajun-yard-dog-charlotte-2?adjust_creative=VGFRDca0eUa0TQtHKuz9aQ&utm_campaign=yelp_api_v3&utm_medium=api_v3_business_search&utm_source=VGFRDca0eUa0TQtHKuz9aQ,223,4,-80.78056097,35.0971238
Vintner Wine Market,8128 Providence Rd,Charlotte,NC,28277,vintner-wine-market-charlotte,(704) 543-9909,https://s3-media1.fl.yelpcdn.com/bphoto/LqOyHTD-0mUGTxSQsIh_rQ/o.jpg,https://www.yelp.com/biz/vintner-wine-market-charlotte?adjust_creative=VGFRDca0eUa0TQtHKuz9aQ&utm_campaign=yelp_api_v3&utm_medium=api_v3_business_search&utm_source=VGFRDca0eUa0TQtHKuz9aQ,55,4,-80.77948,35.09631
Eddie's Place,617 S Sharon Amity Rd,Charlotte,NC,28211,eddies-place-charlotte-4,(704) 442-0147,https://s3-media1.fl.yelpcdn.com/bphoto/T9kNyrCPmGL3U9MZwN3YoA/o.jpg,https://www.yelp.com/biz/eddies-place-charlotte-4?adjust_creative=VGFRDca0eUa0TQtHKuz9aQ&utm_campaign=yelp_api_v3&utm_medium=api_v3_business_search&utm_source=VGFRDca0eUa0TQtHKuz9aQ,229,4,-80.8062086,35.1717635
Hinsons Drive-In,12420 E Independence Blvd,Matthews,NC,28105,hinsons-drive-in-matthews,(704) 847-9506,https://s3-media2.fl.yelpcdn.com/bphoto/HrNVTjnYsFBLRtfmA3MoEw/o.jpg,https://www.yelp.com/biz/hinsons-drive-in-matthews?adjust_creative=VGFRDca0eUa0TQtHKuz9aQ&utm_campaign=yelp_api_v3&utm_medium=api_v3_business_search&utm_source=VGFRDca0eUa0TQtHKuz9aQ,23,4.5,-80.683789,35.10503
O'neil's,8111 Fairview Rd,Mint Hill,NC,28227,o-neils-mint-hill,(704) 545-1070,,https://www.yelp.com/biz/o-neils-mint-hill?adjust_creative=VGFRDca0eUa0TQtHKuz9aQ&utm_campaign=yelp_api_v3&utm_medium=api_v3_business_search&utm_source=VGFRDca0eUa0TQtHKuz9aQ,5,4.5,-80.64429,35.17944
King of Spicy,5546 Albemarle Rd,Charlotte,NC,28212,king-of-spicy-charlotte,(704) 644-1972,https://s3-media1.fl.yelpcdn.com/bphoto/suA9amK-e8Qh4cP-fQwNXw/o.jpg,https://www.yelp.com/biz/king-of-spicy-charlotte?adjust_creative=VGFRDca0eUa0TQtHKuz9aQ&utm_campaign=yelp_api_v3&utm_medium=api_v3_business_search&utm_source=VGFRDca0eUa0TQtHKuz9aQ,82,3.5,-80.75433768,35.20372376
Hwy 55 Burgers Shakes & Fries,8451 Davis Lake Pkwy,Charlotte,NC,28269,hwy-55-burgers-shakes-and-fries-charlotte,(704) 598-7830,https://s3-media2.fl.yelpcdn.com/bphoto/u0fE9boi12jrGEjk7gkoBg/o.jpg,https://www.yelp.com/biz/hwy-55-burgers-shakes-and-fries-charlotte?adjust_creative=VGFRDca0eUa0TQtHKuz9aQ&utm_campaign=yelp_api_v3&utm_medium=api_v3_business_search&utm_source=VGFRDca0eUa0TQtHKuz9aQ,46,3,-80.81444529,35.33435757
Firebirds Wood Fired Grill,6801 Northlake Mall Dr,Charlotte,NC,28216,firebirds-wood-fired-grill-charlotte-3,(704) 295-1919,https://s3-media1.fl.yelpcdn.com/bphoto/hBhN1rE6FfvdRUEmRzwRFg/o.jpg,https://www.yelp.com/biz/firebirds-wood-fired-grill-charlotte-3?adjust_creative=VGFRDca0eUa0TQtHKuz9aQ&utm_campaign=yelp_api_v3&utm_medium=api_v3_business_search&utm_source=VGFRDca0eUa0TQtHKuz9aQ,145,4,-80.851181,35.352549
Flying Saucer Draught Emporium,9605 N Tryon St,Charlotte,NC,28262,flying-saucer-draught-emporium-charlotte-3,(704) 717-8179,https://s3-media4.fl.yelpcdn.com/bphoto/eCwjeYAKr_xOt4-FxHmYnA/o.jpg,https://www.yelp.com/biz/flying-saucer-draught-emporium-charlotte-3?adjust_creative=VGFRDca0eUa0TQtHKuz9aQ&utm_campaign=yelp_api_v3&utm_medium=api_v3_business_search&utm_source=VGFRDca0eUa0TQtHKuz9aQ,222,4,-80.7405518,35.31669443
Eastfield Bar and Grill,8709 Arbor Creek Dr,Charlotte,NC,28269,eastfield-bar-and-grill-charlotte,(704) 464-1164,https://s3-media2.fl.yelpcdn.com/bphoto/2tQvWvPFmtYpkKxBsTF-Pw/o.jpg,https://www.yelp.com/biz/eastfield-bar-and-grill-charlotte?adjust_creative=VGFRDca0eUa0TQtHKuz9aQ&utm_campaign=yelp_api_v3&utm_medium=api_v3_business_search&utm_source=VGFRDca0eUa0TQtHKuz9aQ,77,3.5,-80.784932,35.383678
Wine Vault,9009 J M Keynes Dr,Charlotte,NC,28262,wine-vault-charlotte,(704) 548-9463,https://s3-media1.fl.yelpcdn.com/bphoto/04cU6thPnyCTMKVX1LhCVw/o.jpg,https://www.yelp.com/biz/wine-vault-charlotte?adjust_creative=VGFRDca0eUa0TQtHKuz9aQ&utm_campaign=yelp_api_v3&utm_medium=api_v3_business_search&utm_source=VGFRDca0eUa0TQtHKuz9aQ,41,4,-80.7488,35.31064
JackBeagles,3213 N Davidson St,Charlotte,NC,28205,jackbeagles-charlotte,(704) 334-5140,https://s3-media4.fl.yelpcdn.com/bphoto/JTO5PF_4No4qpQWzU5-9rg/o.jpg,https://www.yelp.com/biz/jackbeagles-charlotte?adjust_creative=VGFRDca0eUa0TQtHKuz9aQ&utm_campaign=yelp_api_v3&utm_medium=api_v3_business_search&utm_source=VGFRDca0eUa0TQtHKuz9aQ,251,4,-80.80551,35.24744
Chili's,8325 Northlake Commons Blvd,Charlotte,NC,28216,chilis-charlotte-7,(704) 494-8403,https://s3-media3.fl.yelpcdn.com/bphoto/mgQ9BKqgx11jAbiT91xJYA/o.jpg,https://www.yelp.com/biz/chilis-charlotte-7?adjust_creative=VGFRDca0eUa0TQtHKuz9aQ&utm_campaign=yelp_api_v3&utm_medium=api_v3_business_search&utm_source=VGFRDca0eUa0TQtHKuz9aQ,41,2.5,-80.85669,35.34866
East Coast Wings & Grill,9711 Northlake Centre Pkwy,Charlotte,NC,28216,east-coast-wings-and-grill-charlotte,(704) 494-4174,https://s3-media3.fl.yelpcdn.com/bphoto/FOsDcUaCV0VbpcKa-khVPQ/o.jpg,https://www.yelp.com/biz/east-coast-wings-and-grill-charlotte?adjust_creative=VGFRDca0eUa0TQtHKuz9aQ&utm_campaign=yelp_api_v3&utm_medium=api_v3_business_search&utm_source=VGFRDca0eUa0TQtHKuz9aQ,105,3.5,-80.8573732,35.3473004
Picasso's Sports Cafe,230 E W T Harris Blvd,Charlotte,NC,28262,picassos-sports-cafe-charlotte,(704) 595-9553,https://s3-media2.fl.yelpcdn.com/bphoto/yG4wmbCSYo5_i1rdH54a5Q/o.jpg,https://www.yelp.com/biz/picassos-sports-cafe-charlotte?adjust_creative=VGFRDca0eUa0TQtHKuz9aQ&utm_campaign=yelp_api_v3&utm_medium=api_v3_business_search&utm_source=VGFRDca0eUa0TQtHKuz9aQ,80,4,-80.74871826,35.30344391
Hickory Tavern,2005 E Arbors Dr,Charlotte,NC,28262,hickory-tavern-charlotte-2,(704) 295-9001,https://s3-media4.fl.yelpcdn.com/bphoto/ef-wIXNchGDl5afmM7twkQ/o.jpg,https://www.yelp.com/biz/hickory-tavern-charlotte-2?adjust_creative=VGFRDca0eUa0TQtHKuz9aQ&utm_campaign=yelp_api_v3&utm_medium=api_v3_business_search&utm_source=VGFRDca0eUa0TQtHKuz9aQ,68,2.5,-80.75595093,35.33669662
Free Range Brewing,2320 N Davidson St,Charlotte,NC,28205,free-range-brewing-charlotte,(980) 201-9096,https://s3-media3.fl.yelpcdn.com/bphoto/mhfqq1K5YjuDj-tN_PFtEw/o.jpg,https://www.yelp.com/biz/free-range-brewing-charlotte?adjust_creative=VGFRDca0eUa0TQtHKuz9aQ&utm_campaign=yelp_api_v3&utm_medium=api_v3_business_search&utm_source=VGFRDca0eUa0TQtHKuz9aQ,72,4,-80.8132754,35.2405352
Saigon Bay,8662-3 Jw Clay Blvd,Charlotte,NC,28262,saigon-bay-charlotte,(704) 714-2527,https://s3-media2.fl.yelpcdn.com/bphoto/snYfpF5J1ZS6bOnM2kLYuA/o.jpg,https://www.yelp.com/biz/saigon-bay-charlotte?adjust_creative=VGFRDca0eUa0TQtHKuz9aQ&utm_campaign=yelp_api_v3&utm_medium=api_v3_business_search&utm_source=VGFRDca0eUa0TQtHKuz9aQ,108,4,-80.75062201,35.31071258
Chili's,500 University Center Blvd,Charlotte,NC,28262,chilis-charlotte-11,(704) 510-0626,https://s3-media3.fl.yelpcdn.com/bphoto/MeBzOLf_j8zf1Xf-qfk2fw/o.jpg,https://www.yelp.com/biz/chilis-charlotte-11?adjust_creative=VGFRDca0eUa0TQtHKuz9aQ&utm_campaign=yelp_api_v3&utm_medium=api_v3_business_search&utm_source=VGFRDca0eUa0TQtHKuz9aQ,37,3,-80.75537,35.30878
Ale's University,9601 N Tryon St,Charlotte,NC,28262,ales-university-charlotte,(980) 498-1130,https://s3-media1.fl.yelpcdn.com/bphoto/keYCbbrxGAOUmOPuaUEBPQ/o.jpg,https://www.yelp.com/biz/ales-university-charlotte?adjust_creative=VGFRDca0eUa0TQtHKuz9aQ&utm_campaign=yelp_api_v3&utm_medium=api_v3_business_search&utm_source=VGFRDca0eUa0TQtHKuz9aQ,45,3.5,-80.74013136,35.3166471
Red Robin Gourmet Burgers,8304 Kenbrooke Drive,Charlotte,NC,28262,red-robin-gourmet-burgers-charlotte,(704) 971-2060,https://s3-media4.fl.yelpcdn.com/bphoto/_75iZx-lY-xmcycydrz82w/o.jpg,https://www.yelp.com/biz/red-robin-gourmet-burgers-charlotte?adjust_creative=VGFRDca0eUa0TQtHKuz9aQ&utm_campaign=yelp_api_v3&utm_medium=api_v3_business_search&utm_source=VGFRDca0eUa0TQtHKuz9aQ,49,3,-80.77173114,35.31682356
Boardwalk Billy's Raw Bar And Ribs,9005-2 Jm Keynes Rd,Charlotte,NC,28262,boardwalk-billys-raw-bar-and-ribs-charlotte-4,(704) 503-7427,https://s3-media1.fl.yelpcdn.com/bphoto/DuU8apXvP_TGX6vABdeBEw/o.jpg,https://www.yelp.com/biz/boardwalk-billys-raw-bar-and-ribs-charlotte-4?adjust_creative=VGFRDca0eUa0TQtHKuz9aQ&utm_campaign=yelp_api_v3&utm_medium=api_v3_business_search&utm_source=VGFRDca0eUa0TQtHKuz9aQ,219,3.5,-80.7496372,35.31064081
Thai House - University,230 E Wt Harris Blvd,Charlotte,NC,28262,thai-house-university-charlotte,(704) 717-8006,https://s3-media2.fl.yelpcdn.com/bphoto/zmwN75-VHMaiOpa4cSrjKg/o.jpg,https://www.yelp.com/biz/thai-house-university-charlotte?adjust_creative=VGFRDca0eUa0TQtHKuz9aQ&utm_campaign=yelp_api_v3&utm_medium=api_v3_business_search&utm_source=VGFRDca0eUa0TQtHKuz9aQ,249,4,-80.74871826,35.30344391
Hwy 55 Burgers Shakes & Fries,5700 University Pointe Boulevard,Charlotte,NC,28262,hwy-55-burgers-shakes-and-fries-charlotte-2,(980) 939-1352,https://s3-media3.fl.yelpcdn.com/bphoto/lAiPlE29sVpTy_dAfXJszg/o.jpg,https://www.yelp.com/biz/hwy-55-burgers-shakes-and-fries-charlotte-2?adjust_creative=VGFRDca0eUa0TQtHKuz9aQ&utm_campaign=yelp_api_v3&utm_medium=api_v3_business_search&utm_source=VGFRDca0eUa0TQtHKuz9aQ,20,2.5,-80.75762177,35.29685593
Solstice Tavern,3221 N Davidson St,Charlotte,NC,28205,solstice-tavern-charlotte,(704) 342-2556,https://s3-media3.fl.yelpcdn.com/bphoto/QJrsylqBML7RH5TdZWGnDQ/o.jpg,https://www.yelp.com/biz/solstice-tavern-charlotte?adjust_creative=VGFRDca0eUa0TQtHKuz9aQ&utm_campaign=yelp_api_v3&utm_medium=api_v3_business_search&utm_source=VGFRDca0eUa0TQtHKuz9aQ,115,3.5,-80.80501,35.2476
Red Fox Lounge,1001 E Sugar Creek Rd,Charlotte,NC,28205,red-fox-lounge-charlotte,(704) 373-9846,https://s3-media2.fl.yelpcdn.com/bphoto/vsIgHajg7k2Bnv3Dn2dNPA/o.jpg,https://www.yelp.com/biz/red-fox-lounge-charlotte?adjust_creative=VGFRDca0eUa0TQtHKuz9aQ&utm_campaign=yelp_api_v3&utm_medium=api_v3_business_search&utm_source=VGFRDca0eUa0TQtHKuz9aQ,1,5,-80.7889328,35.24892426
NoDa Brewing Company,2921 N Tryon St,Charlotte,NC,28206,noda-brewing-company-charlotte-2,(704) 900-6851,https://s3-media4.fl.yelpcdn.com/bphoto/zu_q_NyRx9WDhN72_LdTSg/o.jpg,https://www.yelp.com/biz/noda-brewing-company-charlotte-2?adjust_creative=VGFRDca0eUa0TQtHKuz9aQ&utm_campaign=yelp_api_v3&utm_medium=api_v3_business_search&utm_source=VGFRDca0eUa0TQtHKuz9aQ,62,4.5,-80.812637,35.251678
Iron Thunder Saloon,10023 Weddington Rd,Concord,NC,28027,iron-thunder-saloon-concord,(704) 979-3888,https://s3-media2.fl.yelpcdn.com/bphoto/9YqxzDBLg17AcpKIBwok_w/o.jpg,https://www.yelp.com/biz/iron-thunder-saloon-concord?adjust_creative=VGFRDca0eUa0TQtHKuz9aQ&utm_campaign=yelp_api_v3&utm_medium=api_v3_business_search&utm_source=VGFRDca0eUa0TQtHKuz9aQ,34,3,-80.71138009,35.3651686
The Hill Bar and Grill,11232 Lawyers Rd,Mint Hill,NC,28227,the-hill-bar-and-grill-mint-hill,(704) 573-7212,https://s3-media3.fl.yelpcdn.com/bphoto/FRHVPAoljIbDmSisoSVZ7A/o.jpg,https://www.yelp.com/biz/the-hill-bar-and-grill-mint-hill?adjust_creative=VGFRDca0eUa0TQtHKuz9aQ&utm_campaign=yelp_api_v3&utm_medium=api_v3_business_search&utm_source=VGFRDca0eUa0TQtHKuz9aQ,48,4,-80.65787,35.17363
Hawthorne's NY Pizza & Bar,7319 Matthews Mint Hill Rd,Charlotte,NC,28227,hawthornes-ny-pizza-and-bar-charlotte-9,(704) 545-8089,https://s3-media3.fl.yelpcdn.com/bphoto/JzC5-7sIyq3GNs5tvJi2Yg/o.jpg,https://www.yelp.com/biz/hawthornes-ny-pizza-and-bar-charlotte-9?adjust_creative=VGFRDca0eUa0TQtHKuz9aQ&utm_campaign=yelp_api_v3&utm_medium=api_v3_business_search&utm_source=VGFRDca0eUa0TQtHKuz9aQ,75,3.5,-80.6546765,35.1752912
Jake's Good Eats,12721 Albemarle Rd,Charlotte,NC,28215,jakes-good-eats-charlotte,(704) 545-4741,https://s3-media2.fl.yelpcdn.com/bphoto/WP0y6gzLDxRLBp4t_1o_eg/o.jpg,https://www.yelp.com/biz/jakes-good-eats-charlotte?adjust_creative=VGFRDca0eUa0TQtHKuz9aQ&utm_campaign=yelp_api_v3&utm_medium=api_v3_business_search&utm_source=VGFRDca0eUa0TQtHKuz9aQ,141,3.5,-80.63868654,35.22363102
The Lodge,7725 Colony Rd,Charlotte,NC,28226,the-lodge-charlotte-7,(704) 544-5226,https://s3-media2.fl.yelpcdn.com/bphoto/aa0Z8VdQmxIqBn3-WbxlXA/o.jpg,https://www.yelp.com/biz/the-lodge-charlotte-7?adjust_creative=VGFRDca0eUa0TQtHKuz9aQ&utm_campaign=yelp_api_v3&utm_medium=api_v3_business_search&utm_source=VGFRDca0eUa0TQtHKuz9aQ,76,3.5,-80.8077349,35.106407
Rusty's Deli & Grille,8512 Park Rd,Charlotte,NC,28210,rustys-deli-and-grille-charlotte,(704) 554-9012,https://s3-media4.fl.yelpcdn.com/bphoto/-un9jC10waWVawKHHx3_-g/o.jpg,https://www.yelp.com/biz/rustys-deli-and-grille-charlotte?adjust_creative=VGFRDca0eUa0TQtHKuz9aQ&utm_campaign=yelp_api_v3&utm_medium=api_v3_business_search&utm_source=VGFRDca0eUa0TQtHKuz9aQ,87,4,-80.8563596,35.1164187
Fox & Hound of Charlotte,8500 Pineville Matthews Rd,Charlotte,NC,28226,fox-and-hound-of-charlotte-charlotte,(704) 541-0794,https://s3-media2.fl.yelpcdn.com/bphoto/CkXR0LXBw9HXAV8gxkKSoA/o.jpg,https://www.yelp.com/biz/fox-and-hound-of-charlotte-charlotte?adjust_creative=VGFRDca0eUa0TQtHKuz9aQ&utm_campaign=yelp_api_v3&utm_medium=api_v3_business_search&utm_source=VGFRDca0eUa0TQtHKuz9aQ,54,2.5,-80.862533,35.087932
Flip'n Chicken,7629 Pineville-matthews Rd,Charlotte,NC,28226,flipn-chicken-charlotte-2,(704) 540-8311,https://s3-media2.fl.yelpcdn.com/bphoto/TjKo_L6Xw2wEMz2PoqpitQ/o.jpg,https://www.yelp.com/biz/flipn-chicken-charlotte-2?adjust_creative=VGFRDca0eUa0TQtHKuz9aQ&utm_campaign=yelp_api_v3&utm_medium=api_v3_business_search&utm_source=VGFRDca0eUa0TQtHKuz9aQ,98,4,-80.8471034,35.0875967
Dogwood Southern Table & Bar,4905 Ashley Park Ln,Charlotte,NC,28210,dogwood-southern-table-and-bar-charlotte,(704) 910-4919,https://s3-media4.fl.yelpcdn.com/bphoto/V2WBG3zP_KNPX2S54qWo2Q/o.jpg,https://www.yelp.com/biz/dogwood-southern-table-and-bar-charlotte?adjust_creative=VGFRDca0eUa0TQtHKuz9aQ&utm_campaign=yelp_api_v3&utm_medium=api_v3_business_search&utm_source=VGFRDca0eUa0TQtHKuz9aQ,182,4.5,-80.83006206,35.14593869
Chili's,8136 Providence Rd,Charlotte,NC,28277,chilis-charlotte-9,(704) 541-8799,https://s3-media3.fl.yelpcdn.com/bphoto/RN1OJg8aj55qiynE7UCiFQ/o.jpg,https://www.yelp.com/biz/chilis-charlotte-9?adjust_creative=VGFRDca0eUa0TQtHKuz9aQ&utm_campaign=yelp_api_v3&utm_medium=api_v3_business_search&utm_source=VGFRDca0eUa0TQtHKuz9aQ,28,2.5,-80.7781825,35.0972689
The Broken Spoke,227 Southside Dr,Charlotte,NC,28217,the-broken-spoke-charlotte,(704) 469-9540,https://s3-media2.fl.yelpcdn.com/bphoto/xKov_U1SQbfdviDEWUv4Fw/o.jpg,https://www.yelp.com/biz/the-broken-spoke-charlotte?adjust_creative=VGFRDca0eUa0TQtHKuz9aQ&utm_campaign=yelp_api_v3&utm_medium=api_v3_business_search&utm_source=VGFRDca0eUa0TQtHKuz9aQ,72,4,-80.8816,35.18604
The Olde Mecklenburg Brewery,4150 Yancey Rd,Charlotte,NC,28217,the-olde-mecklenburg-brewery-charlotte-2,(704) 525-5644,https://s3-media3.fl.yelpcdn.com/bphoto/Xw73npXwoZTBONIJTzJvEg/o.jpg,https://www.yelp.com/biz/the-olde-mecklenburg-brewery-charlotte-2?adjust_creative=VGFRDca0eUa0TQtHKuz9aQ&utm_campaign=yelp_api_v3&utm_medium=api_v3_business_search&utm_source=VGFRDca0eUa0TQtHKuz9aQ,325,4,-80.881973,35.187442
Queen Park Social,4125 Yancey Rd,Charlotte,NC,28217,queen-park-social-charlotte,(980) 819-5626,https://s3-media3.fl.yelpcdn.com/bphoto/JE8caJMZG0S8EYhhK8BqJg/o.jpg,https://www.yelp.com/biz/queen-park-social-charlotte?adjust_creative=VGFRDca0eUa0TQtHKuz9aQ&utm_campaign=yelp_api_v3&utm_medium=api_v3_business_search&utm_source=VGFRDca0eUa0TQtHKuz9aQ,60,3.5,-80.8807999,35.18672
Lenny Boy Brewing Co.,3000 S Tryon St,Charlotte,NC,28217,lenny-boy-brewing-co-charlotte,(980) 585-1728,https://s3-media2.fl.yelpcdn.com/bphoto/KyhuATbzKyeFnLUPVqmImw/o.jpg,https://www.yelp.com/biz/lenny-boy-brewing-co-charlotte?adjust_creative=VGFRDca0eUa0TQtHKuz9aQ&utm_campaign=yelp_api_v3&utm_medium=api_v3_business_search&utm_source=VGFRDca0eUa0TQtHKuz9aQ,75,4,-80.873595,35.201444
GoodRoad CiderWorks,117 Southside Dr,Charlotte,NC,28217,goodroad-ciderworks-charlotte,(980) 237-7225,https://s3-media3.fl.yelpcdn.com/bphoto/ghAt7-QMwaSsLbVQ_D66Qw/o.jpg,https://www.yelp.com/biz/goodroad-ciderworks-charlotte?adjust_creative=VGFRDca0eUa0TQtHKuz9aQ&utm_campaign=yelp_api_v3&utm_medium=api_v3_business_search&utm_source=VGFRDca0eUa0TQtHKuz9aQ,19,4.5,-80.87944794,35.18477631
Triple C Brewing Company,2900 Griffith St,Charlotte,NC,28203,triple-c-brewing-company-charlotte,(704) 372-3212,https://s3-media2.fl.yelpcdn.com/bphoto/vShe4RZRSW4-oR3JeP-clA/o.jpg,https://www.yelp.com/biz/triple-c-brewing-company-charlotte?adjust_creative=VGFRDca0eUa0TQtHKuz9aQ&utm_campaign=yelp_api_v3&utm_medium=api_v3_business_search&utm_source=VGFRDca0eUa0TQtHKuz9aQ,135,4.5,-80.8696365,35.2011795
Jocks & Jills Sports Grille,4109 Southstream Blvd,Charlotte,NC,28217,jocks-and-jills-sports-grille-charlotte,(704) 423-0001,https://s3-media3.fl.yelpcdn.com/bphoto/MP8x_Fd5OU5WwQ-V6X6qAg/o.jpg,https://www.yelp.com/biz/jocks-and-jills-sports-grille-charlotte?adjust_creative=VGFRDca0eUa0TQtHKuz9aQ&utm_campaign=yelp_api_v3&utm_medium=api_v3_business_search&utm_source=VGFRDca0eUa0TQtHKuz9aQ,103,3.5,-80.9190979,35.18304062
Red Clay Ciderworks,245 Clanton Rd,Charlotte,NC,28217,red-clay-ciderworks-charlotte-2,(980) 498-0676,https://s3-media1.fl.yelpcdn.com/bphoto/_M16XS5-SYZz1wVCI7TK9Q/o.jpg,https://www.yelp.com/biz/red-clay-ciderworks-charlotte-2?adjust_creative=VGFRDca0eUa0TQtHKuz9aQ&utm_campaign=yelp_api_v3&utm_medium=api_v3_business_search&utm_source=VGFRDca0eUa0TQtHKuz9aQ,77,4.5,-80.87482,35.19456
Pop the Top Craft Beer Shop,116 West Blvd,Charlotte,NC,28203,pop-the-top-craft-beer-shop-charlotte,(704) 562-0199,https://s3-media1.fl.yelpcdn.com/bphoto/4RidPbHu1JXT5L9h0ykIBw/o.jpg,https://www.yelp.com/biz/pop-the-top-craft-beer-shop-charlotte?adjust_creative=VGFRDca0eUa0TQtHKuz9aQ&utm_campaign=yelp_api_v3&utm_medium=api_v3_business_search&utm_source=VGFRDca0eUa0TQtHKuz9aQ,15,5,-80.8595277,35.2129204
Midwood Smokehouse,540 Brandywine Rd,Charlotte,NC,28209,midwood-smokehouse-charlotte-3,(980) 237-7929,https://s3-media3.fl.yelpcdn.com/bphoto/s34265LjqIFmbvmNPNJL_A/o.jpg,https://www.yelp.com/biz/midwood-smokehouse-charlotte-3?adjust_creative=VGFRDca0eUa0TQtHKuz9aQ&utm_campaign=yelp_api_v3&utm_medium=api_v3_business_search&utm_source=VGFRDca0eUa0TQtHKuz9aQ,20,5,-80.8466844,35.1728291
Comet Grill,2224 Park Rd,Charlotte,NC,28203,comet-grill-charlotte,(704) 371-4300,https://s3-media2.fl.yelpcdn.com/bphoto/peDr3WBCLEybN2JN2ASJAA/o.jpg,https://www.yelp.com/biz/comet-grill-charlotte?adjust_creative=VGFRDca0eUa0TQtHKuz9aQ&utm_campaign=yelp_api_v3&utm_medium=api_v3_business_search&utm_source=VGFRDca0eUa0TQtHKuz9aQ,48,4,-80.8521957,35.1995392
Skyland Family Restaurant,4544 South Blvd,Charlotte,NC,28209,skyland-family-restaurant-charlotte,(704) 522-6522,https://s3-media2.fl.yelpcdn.com/bphoto/r4fbdFi9EpEGOob3SN7FYg/o.jpg,https://www.yelp.com/biz/skyland-family-restaurant-charlotte?adjust_creative=VGFRDca0eUa0TQtHKuz9aQ&utm_campaign=yelp_api_v3&utm_medium=api_v3_business_search&utm_source=VGFRDca0eUa0TQtHKuz9aQ,91,3.5,-80.87646859,35.17868908
Blue Blaze Brewing,528 S Turner Ave,Charlotte,NC,28208,blue-blaze-brewing-charlotte,(980) 859-2586,https://s3-media3.fl.yelpcdn.com/bphoto/Z7z44GQYJxHTHuyiMu1WCw/o.jpg,https://www.yelp.com/biz/blue-blaze-brewing-charlotte?adjust_creative=VGFRDca0eUa0TQtHKuz9aQ&utm_campaign=yelp_api_v3&utm_medium=api_v3_business_search&utm_source=VGFRDca0eUa0TQtHKuz9aQ,43,4.5,-80.86752877,35.24091503
Heirloom Restaurant,8470 Bellhaven Blvd,Charlotte,NC,28216,heirloom-restaurant-charlotte-2,(704) 595-7710,https://s3-media1.fl.yelpcdn.com/bphoto/ApqqjM6EhzWy8qIT3zd6Kw/o.jpg,https://www.yelp.com/biz/heirloom-restaurant-charlotte-2?adjust_creative=VGFRDca0eUa0TQtHKuz9aQ&utm_campaign=yelp_api_v3&utm_medium=api_v3_business_search&utm_source=VGFRDca0eUa0TQtHKuz9aQ,180,4,-80.937302,35.305157
Queen City Beer and Chili,135 Brevard Ct,Charlotte,NC,28202,queen-city-beer-and-chili-charlotte,(980) 430-5870,https://s3-media3.fl.yelpcdn.com/bphoto/47G_Ldv_5MNOLF3EyPi4DA/o.jpg,https://www.yelp.com/biz/queen-city-beer-and-chili-charlotte?adjust_creative=VGFRDca0eUa0TQtHKuz9aQ&utm_campaign=yelp_api_v3&utm_medium=api_v3_business_search&utm_source=VGFRDca0eUa0TQtHKuz9aQ,44,4,-80.84677,35.22578
Ink N Ivy CLT,222 S Church St,Charlotte,NC,28202,ink-n-ivy-clt-charlotte,(704) 332-5424,https://s3-media1.fl.yelpcdn.com/bphoto/EaCReH3Q73czPdmug8laSg/o.jpg,https://www.yelp.com/biz/ink-n-ivy-clt-charlotte?adjust_creative=VGFRDca0eUa0TQtHKuz9aQ&utm_campaign=yelp_api_v3&utm_medium=api_v3_business_search&utm_source=VGFRDca0eUa0TQtHKuz9aQ,202,3,-80.84631,35.22707
The Belfast Mill,144 Brevard Ct,Charlotte,NC,28202,the-belfast-mill-charlotte-4,(704) 333-7160,https://s3-media3.fl.yelpcdn.com/bphoto/RzsgUjnhOSXP3C13D0bdXw/o.jpg,https://www.yelp.com/biz/the-belfast-mill-charlotte-4?adjust_creative=VGFRDca0eUa0TQtHKuz9aQ&utm_campaign=yelp_api_v3&utm_medium=api_v3_business_search&utm_source=VGFRDca0eUa0TQtHKuz9aQ,50,4.5,-80.84675,35.22601
The Corner Pub,335 N Graham St,Charlotte,NC,28263,the-corner-pub-charlotte,(704) 376-2720,https://s3-media2.fl.yelpcdn.com/bphoto/mdJFlfNx-PYRYPAavqn9XQ/o.jpg,https://www.yelp.com/biz/the-corner-pub-charlotte?adjust_creative=VGFRDca0eUa0TQtHKuz9aQ&utm_campaign=yelp_api_v3&utm_medium=api_v3_business_search&utm_source=VGFRDca0eUa0TQtHKuz9aQ,33,4,-80.8442499,35.2327237
Wooden Robot Brewery,1440 S Tryon St,Charlotte,NC,28203,wooden-robot-brewery-charlotte,(980) 819-7875,https://s3-media2.fl.yelpcdn.com/bphoto/99LgO1k7DvWnB472Gtw7rA/o.jpg,https://www.yelp.com/biz/wooden-robot-brewery-charlotte?adjust_creative=VGFRDca0eUa0TQtHKuz9aQ&utm_campaign=yelp_api_v3&utm_medium=api_v3_business_search&utm_source=VGFRDca0eUa0TQtHKuz9aQ,130,4.5,-80.85719646,35.21699882
Pinky's Westside Grill,1600 W Morehead St,Charlotte,NC,28208,pinkys-westside-grill-charlotte,(704) 332-0402,https://s3-media4.fl.yelpcdn.com/bphoto/K30Ta1SJso5FlIoX_z05VQ/o.jpg,https://www.yelp.com/biz/pinkys-westside-grill-charlotte?adjust_creative=VGFRDca0eUa0TQtHKuz9aQ&utm_campaign=yelp_api_v3&utm_medium=api_v3_business_search&utm_source=VGFRDca0eUa0TQtHKuz9aQ,716,4,-80.86738,35.22912
Letty's,2121 Shamrock Dr,Charlotte,NC,28205,lettys-charlotte,(704) 817-8702,https://s3-media2.fl.yelpcdn.com/bphoto/4D9WuUcnfq4z_IaM9p59Lw/o.jpg,https://www.yelp.com/biz/lettys-charlotte?adjust_creative=VGFRDca0eUa0TQtHKuz9aQ&utm_campaign=yelp_api_v3&utm_medium=api_v3_business_search&utm_source=VGFRDca0eUa0TQtHKuz9aQ,69,4,-80.7877197,35.2350883
The Workman's Friend,1531 Central Ave,Charlotte,NC,28205,the-workmans-friend-charlotte-2,(980) 224-8234,https://s3-media4.fl.yelpcdn.com/bphoto/SyXQbVr3LmIhaQs9tfX2qQ/o.jpg,https://www.yelp.com/biz/the-workmans-friend-charlotte-2?adjust_creative=VGFRDca0eUa0TQtHKuz9aQ&utm_campaign=yelp_api_v3&utm_medium=api_v3_business_search&utm_source=VGFRDca0eUa0TQtHKuz9aQ,149,4.5,-80.812271,35.220588
Pint Central,1226 Central Ave,Charlotte,NC,28204,pint-central-charlotte,(980) 237-9108,https://s3-media3.fl.yelpcdn.com/bphoto/Mgx4ZjvvS1yMPQX1-_eYKA/o.jpg,https://www.yelp.com/biz/pint-central-charlotte?adjust_creative=VGFRDca0eUa0TQtHKuz9aQ&utm_campaign=yelp_api_v3&utm_medium=api_v3_business_search&utm_source=VGFRDca0eUa0TQtHKuz9aQ,152,4,-80.817326,35.220652
Heist Brewery,2909 N Davidson St,Charlotte,NC,28205,heist-brewery-charlotte,(704) 375-8260,https://s3-media2.fl.yelpcdn.com/bphoto/jHDUdN3CsJYV8BR7lgjZQg/o.jpg,https://www.yelp.com/biz/heist-brewery-charlotte?adjust_creative=VGFRDca0eUa0TQtHKuz9aQ&utm_campaign=yelp_api_v3&utm_medium=api_v3_business_search&utm_source=VGFRDca0eUa0TQtHKuz9aQ,474,3.5,-80.80956,35.24531
J Peters Grill & Bar,1000 Marina Village Dr,Mount Holly,NC,28120,j-peters-grill-and-bar-mount-holly,(704) 601-5541,https://s3-media3.fl.yelpcdn.com/bphoto/nUSe1J7k4EOLGYlIme5lAg/o.jpg,https://www.yelp.com/biz/j-peters-grill-and-bar-mount-holly?adjust_creative=VGFRDca0eUa0TQtHKuz9aQ&utm_campaign=yelp_api_v3&utm_medium=api_v3_business_search&utm_source=VGFRDca0eUa0TQtHKuz9aQ,49,3.5,-81.01537231,35.27321094
Riverview Raw Bar and Chill,10012 Moores Chapel Lp,Charlotte,NC,28214,riverview-raw-bar-and-chill-charlotte,(704) 412-0181,https://s3-media4.fl.yelpcdn.com/bphoto/DbhrioOACUnS8SHaDx7t7A/o.jpg,https://www.yelp.com/biz/riverview-raw-bar-and-chill-charlotte?adjust_creative=VGFRDca0eUa0TQtHKuz9aQ&utm_campaign=yelp_api_v3&utm_medium=api_v3_business_search&utm_source=VGFRDca0eUa0TQtHKuz9aQ,47,3.5,-81.00496,35.246588
South Main Cycles,4 N Main St,Belmont,NC,28012,south-main-cycles-belmont,(704) 825-8585,https://s3-media2.fl.yelpcdn.com/bphoto/Agg5oWkgMYMKIFh9DG9hDg/o.jpg,https://www.yelp.com/biz/south-main-cycles-belmont?adjust_creative=VGFRDca0eUa0TQtHKuz9aQ&utm_campaign=yelp_api_v3&utm_medium=api_v3_business_search&utm_source=VGFRDca0eUa0TQtHKuz9aQ,9,4,-81.03771315,35.24266734
Brightstar Grill,205 Madora St,Mount Holly,NC,28120,brightstar-grill-mount-holly-2,(704) 827-0212,https://s3-media3.fl.yelpcdn.com/bphoto/T9LBblAUnxJAimWymnJqzg/o.jpg,https://www.yelp.com/biz/brightstar-grill-mount-holly-2?adjust_creative=VGFRDca0eUa0TQtHKuz9aQ&utm_campaign=yelp_api_v3&utm_medium=api_v3_business_search&utm_source=VGFRDca0eUa0TQtHKuz9aQ,40,4,-81.0247051,35.2910606
River's Edge Bar and Grill,5000 Whitewater Center Pkwy,Charlotte,NC,28214,rivers-edge-bar-and-grill-charlotte,(704) 391-3900,https://s3-media2.fl.yelpcdn.com/bphoto/wVwG-BR40w-SwFd0E7Ju7g/o.jpg,https://www.yelp.com/biz/rivers-edge-bar-and-grill-charlotte?adjust_creative=VGFRDca0eUa0TQtHKuz9aQ&utm_campaign=yelp_api_v3&utm_medium=api_v3_business_search&utm_source=VGFRDca0eUa0TQtHKuz9aQ,63,3,-81.00521157,35.27277972
Bad Daddy's Burger Bar,5501 R C Josh Birmingham,Charlotte,NC,28208,bad-daddys-burger-bar-charlotte-11,(704) 359-4013,https://s3-media1.fl.yelpcdn.com/bphoto/-WfOhvFdXjzsFfwNxsOvFA/o.jpg,https://www.yelp.com/biz/bad-daddys-burger-bar-charlotte-11?adjust_creative=VGFRDca0eUa0TQtHKuz9aQ&utm_campaign=yelp_api_v3&utm_medium=api_v3_business_search&utm_source=VGFRDca0eUa0TQtHKuz9aQ,276,3,-80.94256639,35.21935925
Mount Holly Grill,1118 S Main St,Mount Holly,NC,28120,mount-holly-grill-mount-holly,(704) 827-2131,https://s3-media1.fl.yelpcdn.com/bphoto/IHIVhQFaOERhT5qE_BhePQ/o.jpg,https://www.yelp.com/biz/mount-holly-grill-mount-holly?adjust_creative=VGFRDca0eUa0TQtHKuz9aQ&utm_campaign=yelp_api_v3&utm_medium=api_v3_business_search&utm_source=VGFRDca0eUa0TQtHKuz9aQ,10,3.5,-81.0268746,35.2772293
Sammy's Deli & Neighborhood Pub,25 S Main St,Belmont,NC,28012,sammys-deli-and-neighborhood-pub-belmont,(704) 825-4266,https://s3-media3.fl.yelpcdn.com/bphoto/QcIFJxlCJgJev6SnqF3N_Q/o.jpg,https://www.yelp.com/biz/sammys-deli-and-neighborhood-pub-belmont?adjust_creative=VGFRDca0eUa0TQtHKuz9aQ&utm_campaign=yelp_api_v3&utm_medium=api_v3_business_search&utm_source=VGFRDca0eUa0TQtHKuz9aQ,95,4,-81.03793,35.2414
McBonie's Bar & Grill,4800 Monroe Rd,Charlotte,NC,28263,mcbonies-bar-and-grill-charlotte,(704) 563-2999,https://s3-media4.fl.yelpcdn.com/bphoto/GfW22PZSejgskgC5_n2-FQ/o.jpg,https://www.yelp.com/biz/mcbonies-bar-and-grill-charlotte?adjust_creative=VGFRDca0eUa0TQtHKuz9aQ&utm_campaign=yelp_api_v3&utm_medium=api_v3_business_search&utm_source=VGFRDca0eUa0TQtHKuz9aQ,20,2.5,-80.78103,35.19277
Smokey Joe's Cafe,510 Briar Creek Rd,Charlotte,NC,28205,smokey-joes-cafe-charlotte,(704) 338-9380,https://s3-media3.fl.yelpcdn.com/bphoto/77v0cpiFo2-Wjt6_bkKWtQ/o.jpg,https://www.yelp.com/biz/smokey-joes-cafe-charlotte?adjust_creative=VGFRDca0eUa0TQtHKuz9aQ&utm_campaign=yelp_api_v3&utm_medium=api_v3_business_search&utm_source=VGFRDca0eUa0TQtHKuz9aQ,19,4.5,-80.80138397,35.20413971
Namastay Kitchen and Hangout,274 S Sharon Amity Rd,Charlotte,NC,28211,namastay-kitchen-and-hangout-charlotte-2,(980) 999-3281,https://s3-media1.fl.yelpcdn.com/bphoto/Nz6gDLN5axfcvFMm0LzjEg/o.jpg,https://www.yelp.com/biz/namastay-kitchen-and-hangout-charlotte-2?adjust_creative=VGFRDca0eUa0TQtHKuz9aQ&utm_campaign=yelp_api_v3&utm_medium=api_v3_business_search&utm_source=VGFRDca0eUa0TQtHKuz9aQ,55,4,-80.8012314,35.1750827
Legion Brewing,1906 Commonwealth Ave,Charlotte,NC,28205,legion-brewing-charlotte-2,(844) 467-5683,https://s3-media2.fl.yelpcdn.com/bphoto/zVSUZdWDqsnawxiXVLtNPw/o.jpg,https://www.yelp.com/biz/legion-brewing-charlotte-2?adjust_creative=VGFRDca0eUa0TQtHKuz9aQ&utm_campaign=yelp_api_v3&utm_medium=api_v3_business_search&utm_source=VGFRDca0eUa0TQtHKuz9aQ,66,4.5,-80.813026,35.218421
Village Tavern,4201 Congress St,Charlotte,NC,28209,village-tavern-charlotte,(704) 552-9983,https://s3-media4.fl.yelpcdn.com/bphoto/4sfDz_5cDcWj_HOfiXbuRw/o.jpg,https://www.yelp.com/biz/village-tavern-charlotte?adjust_creative=VGFRDca0eUa0TQtHKuz9aQ&utm_campaign=yelp_api_v3&utm_medium=api_v3_business_search&utm_source=VGFRDca0eUa0TQtHKuz9aQ,146,4,-80.836843,35.15475
Paco's Tacos & Tequila,6401 Morrison Blvd,Charlotte,NC,28211,pacos-tacos-and-tequila-charlotte-2,(704) 716-8226,https://s3-media2.fl.yelpcdn.com/bphoto/bfHV8H7FPqJclOSk_tv0kQ/o.jpg,https://www.yelp.com/biz/pacos-tacos-and-tequila-charlotte-2?adjust_creative=VGFRDca0eUa0TQtHKuz9aQ&utm_campaign=yelp_api_v3&utm_medium=api_v3_business_search&utm_source=VGFRDca0eUa0TQtHKuz9aQ,453,4,-80.83084803,35.15623274
Angry Ale's,1518 Montford Dr,Charlotte,NC,28209,angry-ales-charlotte-2,(704) 525-3663,https://s3-media4.fl.yelpcdn.com/bphoto/awc6AeudVxvuqIdvCWUW9g/o.jpg,https://www.yelp.com/biz/angry-ales-charlotte-2?adjust_creative=VGFRDca0eUa0TQtHKuz9aQ&utm_campaign=yelp_api_v3&utm_medium=api_v3_business_search&utm_source=VGFRDca0eUa0TQtHKuz9aQ,130,3,-80.84998,35.17035
Bricktop's Restaurant,6401 Morrison Blvd,Charlotte,NC,28211,bricktops-restaurant-charlotte,(704) 364-6255,https://s3-media3.fl.yelpcdn.com/bphoto/0lalauWdYB9heCH_7DMzGg/o.jpg,https://www.yelp.com/biz/bricktops-restaurant-charlotte?adjust_creative=VGFRDca0eUa0TQtHKuz9aQ&utm_campaign=yelp_api_v3&utm_medium=api_v3_business_search&utm_source=VGFRDca0eUa0TQtHKuz9aQ,234,4,-80.831283,35.155902
Stewart Penick's Terrace - SouthPark,4625 Piedmont Row Dr,Charlotte,NC,28210,stewart-penicks-terrace-southpark-charlotte,(704) 554-6177,https://s3-media3.fl.yelpcdn.com/bphoto/D0yYvk_PWh5LbIpzjmlcSw/o.jpg,https://www.yelp.com/biz/stewart-penicks-terrace-southpark-charlotte?adjust_creative=VGFRDca0eUa0TQtHKuz9aQ&utm_campaign=yelp_api_v3&utm_medium=api_v3_business_search&utm_source=VGFRDca0eUa0TQtHKuz9aQ,485,4,-80.83951794,35.15243718
American Burger - South Park,5821 Fairview Rd,Charlotte,NC,28210,american-burger-south-park-charlotte,(704) 733-9037,https://s3-media3.fl.yelpcdn.com/bphoto/sE7gc664uLkbbU2ky4FXuw/o.jpg,https://www.yelp.com/biz/american-burger-south-park-charlotte?adjust_creative=VGFRDca0eUa0TQtHKuz9aQ&utm_campaign=yelp_api_v3&utm_medium=api_v3_business_search&utm_source=VGFRDca0eUa0TQtHKuz9aQ,67,3.5,-80.8416787,35.1521302
Treehouse Whiskey & Fork,4423 Sharon Rd,Charlotte,NC,28211,treehouse-whiskey-and-fork-charlotte-2,(980) 207-0949,https://s3-media1.fl.yelpcdn.com/bphoto/OYuEmYIjFPPIfFZqX3p0eQ/o.jpg,https://www.yelp.com/biz/treehouse-whiskey-and-fork-charlotte-2?adjust_creative=VGFRDca0eUa0TQtHKuz9aQ&utm_campaign=yelp_api_v3&utm_medium=api_v3_business_search&utm_source=VGFRDca0eUa0TQtHKuz9aQ,175,3,-80.8278122,35.1510582
Harper's Restaurant,6518 Fairview Rd,Charlotte,NC,28210,harpers-restaurant-charlotte-2,(704) 366-6688,https://s3-media4.fl.yelpcdn.com/bphoto/h1wJIXkVvrTEKcw8IwRUMw/o.jpg,https://www.yelp.com/biz/harpers-restaurant-charlotte-2?adjust_creative=VGFRDca0eUa0TQtHKuz9aQ&utm_campaign=yelp_api_v3&utm_medium=api_v3_business_search&utm_source=VGFRDca0eUa0TQtHKuz9aQ,137,3.5,-80.83171271,35.14857821
Duckworth's Grill & Taphouse,4435 Park Rd,Charlotte,NC,28209,duckworths-grill-and-taphouse-charlotte,(704) 527-5783,https://s3-media2.fl.yelpcdn.com/bphoto/Et5ZTXYezax3O35BWHrnag/o.jpg,https://www.yelp.com/biz/duckworths-grill-and-taphouse-charlotte?adjust_creative=VGFRDca0eUa0TQtHKuz9aQ&utm_campaign=yelp_api_v3&utm_medium=api_v3_business_search&utm_source=VGFRDca0eUa0TQtHKuz9aQ,265,4,-80.85061,35.17083
Sir Edmond Halley's,4151A Park Rd,Charlotte,NC,28209,sir-edmond-halleys-charlotte,(704) 525-7775,https://s3-media1.fl.yelpcdn.com/bphoto/9zjwEg4v6Mjoton-Sjnh7Q/o.jpg,https://www.yelp.com/biz/sir-edmond-halleys-charlotte?adjust_creative=VGFRDca0eUa0TQtHKuz9aQ&utm_campaign=yelp_api_v3&utm_medium=api_v3_business_search&utm_source=VGFRDca0eUa0TQtHKuz9aQ,142,3.5,-80.850885,35.174788
Lebowski's Neighborhood Grill,1524 East Blvd,Charlotte,NC,28203,lebowskis-neighborhood-grill-charlotte,(704) 370-1177,https://s3-media3.fl.yelpcdn.com/bphoto/QizSPZ4s5UoXVJJGmxWrqQ/o.jpg,https://www.yelp.com/biz/lebowskis-neighborhood-grill-charlotte?adjust_creative=VGFRDca0eUa0TQtHKuz9aQ&utm_campaign=yelp_api_v3&utm_medium=api_v3_business_search&utm_source=VGFRDca0eUa0TQtHKuz9aQ,294,4.5,-80.842288,35.199889
Barreled At The Lift,1600 E Woodlawn Rd,Charlotte,NC,28209,barreled-at-the-lift-charlotte,(704) 626-8850,https://s3-media3.fl.yelpcdn.com/bphoto/spA6zXkih3B6zBhHPm0DCQ/o.jpg,https://www.yelp.com/biz/barreled-at-the-lift-charlotte?adjust_creative=VGFRDca0eUa0TQtHKuz9aQ&utm_campaign=yelp_api_v3&utm_medium=api_v3_business_search&utm_source=VGFRDca0eUa0TQtHKuz9aQ,58,4,-80.8492887,35.1720913
Park Road Soda Shoppe,4121 Park Rd,Charlotte,NC,28209,park-road-soda-shoppe-charlotte,(704) 525-8420,https://s3-media2.fl.yelpcdn.com/bphoto/LgIjwWQhXU-vuJjjFytxGA/o.jpg,https://www.yelp.com/biz/park-road-soda-shoppe-charlotte?adjust_creative=VGFRDca0eUa0TQtHKuz9aQ&utm_campaign=yelp_api_v3&utm_medium=api_v3_business_search&utm_source=VGFRDca0eUa0TQtHKuz9aQ,21,4,-80.84966667,35.17542758
Brazwells Premium Pub,1627 Montford Dr,Charlotte,NC,28209,brazwells-premium-pub-charlotte-2,(704) 523-3500,https://s3-media3.fl.yelpcdn.com/bphoto/Mq0k-nPn37dnn-6mIhGVSQ/o.jpg,https://www.yelp.com/biz/brazwells-premium-pub-charlotte-2?adjust_creative=VGFRDca0eUa0TQtHKuz9aQ&utm_campaign=yelp_api_v3&utm_medium=api_v3_business_search&utm_source=VGFRDca0eUa0TQtHKuz9aQ,117,3.5,-80.84856415,35.17099762
ROCKSALT - Charlotte,512 Brandywine Rd,Charlotte,NC,28209,rocksalt-charlotte-charlotte,(704) 503-9945,https://s3-media2.fl.yelpcdn.com/bphoto/iOgV-Bw58EYbfpJVuMx9NA/o.jpg,https://www.yelp.com/biz/rocksalt-charlotte-charlotte?adjust_creative=VGFRDca0eUa0TQtHKuz9aQ&utm_campaign=yelp_api_v3&utm_medium=api_v3_business_search&utm_source=VGFRDca0eUa0TQtHKuz9aQ,166,3.5,-80.8461419,35.1730419
Good Food on Montford,1701 Montford Dr,Charlotte,NC,28209,good-food-on-montford-charlotte-2,(704) 525-0881,https://s3-media4.fl.yelpcdn.com/bphoto/DjDwcyWGQf3HhJgttEcklg/o.jpg,https://www.yelp.com/biz/good-food-on-montford-charlotte-2?adjust_creative=VGFRDca0eUa0TQtHKuz9aQ&utm_campaign=yelp_api_v3&utm_medium=api_v3_business_search&utm_source=VGFRDca0eUa0TQtHKuz9aQ,490,4.5,-80.84822,35.17101
Selwyn Avenue Pub,2801 Selwyn Ave,Charlotte,NC,28209,selwyn-avenue-pub-charlotte,(704) 333-3443,https://s3-media4.fl.yelpcdn.com/bphoto/tXJUSoZYgAdUb8GyYNs0nQ/o.jpg,https://www.yelp.com/biz/selwyn-avenue-pub-charlotte?adjust_creative=VGFRDca0eUa0TQtHKuz9aQ&utm_campaign=yelp_api_v3&utm_medium=api_v3_business_search&utm_source=VGFRDca0eUa0TQtHKuz9aQ,87,3.5,-80.8390299,35.17465
JJ's Red Hots,1514 East Blvd,Charlotte,NC,28203,jjs-red-hots-charlotte-2,(980) 225-8880,https://s3-media3.fl.yelpcdn.com/bphoto/eaAYodJGCe1GmlMeQFR_kA/o.jpg,https://www.yelp.com/biz/jjs-red-hots-charlotte-2?adjust_creative=VGFRDca0eUa0TQtHKuz9aQ&utm_campaign=yelp_api_v3&utm_medium=api_v3_business_search&utm_source=VGFRDca0eUa0TQtHKuz9aQ,288,4,-80.84229469,35.19979797
U Name It Restaurant,1537 W Blvd,Charlotte,NC,28208,u-name-it-restaurant-charlotte-2,(980) 833-1847,https://s3-media3.fl.yelpcdn.com/bphoto/qaf4jktOaBSGN7vP5eoGew/o.jpg,https://www.yelp.com/biz/u-name-it-restaurant-charlotte-2?adjust_creative=VGFRDca0eUa0TQtHKuz9aQ&utm_campaign=yelp_api_v3&utm_medium=api_v3_business_search&utm_source=VGFRDca0eUa0TQtHKuz9aQ,2,5,-80.88291004,35.21606987
Fidelli Kitchen,1616 Camden Rd,Charlotte,NC,28203,fidelli-kitchen-charlotte,(704) 594-8000,https://s3-media2.fl.yelpcdn.com/bphoto/yLkArSIIqqmVk0LwvZaeow/o.jpg,https://www.yelp.com/biz/fidelli-kitchen-charlotte?adjust_creative=VGFRDca0eUa0TQtHKuz9aQ&utm_campaign=yelp_api_v3&utm_medium=api_v3_business_search&utm_source=VGFRDca0eUa0TQtHKuz9aQ,47,4,-80.85745091,35.21428741
The Burger Company,1500 W Morehead St,Charlotte,NC,28208,the-burger-company-charlotte,(704) 332-7333,https://s3-media3.fl.yelpcdn.com/bphoto/kOg_zgfh2ie-qfxEusdWFw/o.jpg,https://www.yelp.com/biz/the-burger-company-charlotte?adjust_creative=VGFRDca0eUa0TQtHKuz9aQ&utm_campaign=yelp_api_v3&utm_medium=api_v3_business_search&utm_source=VGFRDca0eUa0TQtHKuz9aQ,159,3,-80.86560822,35.22959137
Helles & Dunkel,222 E Bland St,Charlotte,NC,28203,helles-and-dunkel-charlotte,(704) 333-2080,https://s3-media2.fl.yelpcdn.com/bphoto/JIb5qJkCEoUDSRz_zETmWg/o.jpg,https://www.yelp.com/biz/helles-and-dunkel-charlotte?adjust_creative=VGFRDca0eUa0TQtHKuz9aQ&utm_campaign=yelp_api_v3&utm_medium=api_v3_business_search&utm_source=VGFRDca0eUa0TQtHKuz9aQ,52,3.5,-80.8542254,35.2167372
The Unknown Brewing,1327 S Mint St,Charlotte,NC,28203,the-unknown-brewing-charlotte,(980) 237-2628,https://s3-media2.fl.yelpcdn.com/bphoto/SNRWtRDsxe0XIXT4HFocsA/o.jpg,https://www.yelp.com/biz/the-unknown-brewing-charlotte?adjust_creative=VGFRDca0eUa0TQtHKuz9aQ&utm_campaign=yelp_api_v3&utm_medium=api_v3_business_search&utm_source=VGFRDca0eUa0TQtHKuz9aQ,91,4,-80.85781,35.22059
Stagioni Four Seasons of Food,715 Providence Rd,Charlotte,NC,28207,stagioni-four-seasons-of-food-charlotte,(704) 372-8110,https://s3-media2.fl.yelpcdn.com/bphoto/UGJdtybF_I12eVeZlClNfQ/o.jpg,https://www.yelp.com/biz/stagioni-four-seasons-of-food-charlotte?adjust_creative=VGFRDca0eUa0TQtHKuz9aQ&utm_campaign=yelp_api_v3&utm_medium=api_v3_business_search&utm_source=VGFRDca0eUa0TQtHKuz9aQ,110,4,-80.824611,35.200325
Fenwick's,511 Providence Rd,Charlotte,NC,28207,fenwicks-charlotte-2,(704) 333-2750,https://s3-media3.fl.yelpcdn.com/bphoto/tbvaFxQkeHEIbT2uIAApOw/o.jpg,https://www.yelp.com/biz/fenwicks-charlotte-2?adjust_creative=VGFRDca0eUa0TQtHKuz9aQ&utm_campaign=yelp_api_v3&utm_medium=api_v3_business_search&utm_source=VGFRDca0eUa0TQtHKuz9aQ,95,4,-80.82442474,35.20309448
RuRu's Tacos + Tequila,715 Providence Rd,Charlotte,NC,28207,rurus-tacos-tequila-charlotte-3,(704) 332-7933,https://s3-media3.fl.yelpcdn.com/bphoto/QuiNdtSNOzBubm5G4q-4qQ/o.jpg,https://www.yelp.com/biz/rurus-tacos-tequila-charlotte-3?adjust_creative=VGFRDca0eUa0TQtHKuz9aQ&utm_campaign=yelp_api_v3&utm_medium=api_v3_business_search&utm_source=VGFRDca0eUa0TQtHKuz9aQ,238,3.5,-80.82443453,35.20028177
DeSano Pizzeria Napoletana,1500 E 3rd St,Charlotte,NC,28204,desano-pizzeria-napoletana-charlotte-3,(704) 332-8486,https://s3-media4.fl.yelpcdn.com/bphoto/subwbIzVr1tru14t8HciWA/o.jpg,https://www.yelp.com/biz/desano-pizzeria-napoletana-charlotte-3?adjust_creative=VGFRDca0eUa0TQtHKuz9aQ&utm_campaign=yelp_api_v3&utm_medium=api_v3_business_search&utm_source=VGFRDca0eUa0TQtHKuz9aQ,42,4,-80.82987,35.21246
Infused,312 N Myers St,Charlotte,NC,28202,infused-charlotte-4,(704) 910-3585,https://s3-media1.fl.yelpcdn.com/bphoto/vgtopVuRE1_Q745EYePZIg/o.jpg,https://www.yelp.com/biz/infused-charlotte-4?adjust_creative=VGFRDca0eUa0TQtHKuz9aQ&utm_campaign=yelp_api_v3&utm_medium=api_v3_business_search&utm_source=VGFRDca0eUa0TQtHKuz9aQ,24,4.5,-80.8331511,35.2228987
Bad Daddy's Burger Bar,1626 East Blvd,Charlotte,NC,28203,bad-daddys-burger-bar-charlotte-13,(704) 714-4888,https://s3-media4.fl.yelpcdn.com/bphoto/VC4kyf2odw3ujer-SkfTyQ/o.jpg,https://www.yelp.com/biz/bad-daddys-burger-bar-charlotte-13?adjust_creative=VGFRDca0eUa0TQtHKuz9aQ&utm_campaign=yelp_api_v3&utm_medium=api_v3_business_search&utm_source=VGFRDca0eUa0TQtHKuz9aQ,414,4,-80.84098,35.19886
Providence Road Sundries,1522 Providence Rd,Charlotte,NC,28207,providence-road-sundries-charlotte,(704) 366-4467,https://s3-media4.fl.yelpcdn.com/bphoto/3SgIxth0wsF47EU6dvZVMQ/o.jpg,https://www.yelp.com/biz/providence-road-sundries-charlotte?adjust_creative=VGFRDca0eUa0TQtHKuz9aQ&utm_campaign=yelp_api_v3&utm_medium=api_v3_business_search&utm_source=VGFRDca0eUa0TQtHKuz9aQ,30,3.5,-80.82212,35.1865
Kid Cashew,1608 East Blvd,Charlotte,NC,28203,kid-cashew-charlotte,(704) 208-4148,https://s3-media1.fl.yelpcdn.com/bphoto/MuckZH8IjBm7wMe8PQfRRQ/o.jpg,https://www.yelp.com/biz/kid-cashew-charlotte?adjust_creative=VGFRDca0eUa0TQtHKuz9aQ&utm_campaign=yelp_api_v3&utm_medium=api_v3_business_search&utm_source=VGFRDca0eUa0TQtHKuz9aQ,226,4,-80.8414488,35.1991851
Thomas Street Tavern,1228 Thomas Ave,Charlotte,NC,28205,thomas-street-tavern-charlotte,(704) 376-1622,https://s3-media3.fl.yelpcdn.com/bphoto/0OWO0ZxJkKCrNyvbFc_qVA/o.jpg,https://www.yelp.com/biz/thomas-street-tavern-charlotte?adjust_creative=VGFRDca0eUa0TQtHKuz9aQ&utm_campaign=yelp_api_v3&utm_medium=api_v3_business_search&utm_source=VGFRDca0eUa0TQtHKuz9aQ,131,4,-80.8120589,35.21944628
Hickory Tavern,1100 Metropolitan Ave,Charlotte,NC,28204,hickory-tavern-charlotte-9,(704) 334-5155,https://s3-media1.fl.yelpcdn.com/bphoto/ldab-zt1N55-3TrRg-6X1Q/o.jpg,https://www.yelp.com/biz/hickory-tavern-charlotte-9?adjust_creative=VGFRDca0eUa0TQtHKuz9aQ&utm_campaign=yelp_api_v3&utm_medium=api_v3_business_search&utm_source=VGFRDca0eUa0TQtHKuz9aQ,99,3.5,-80.8356323,35.2126694
Snug Harbor,1228 Gordon St,Charlotte,NC,28205,snug-harbor-charlotte,(704) 561-1781,https://s3-media2.fl.yelpcdn.com/bphoto/Ctx9SmILo5AsSySeRcQGBg/o.jpg,https://www.yelp.com/biz/snug-harbor-charlotte?adjust_creative=VGFRDca0eUa0TQtHKuz9aQ&utm_campaign=yelp_api_v3&utm_medium=api_v3_business_search&utm_source=VGFRDca0eUa0TQtHKuz9aQ,56,4.5,-80.8132486,35.219977
The Thirsty Beaver,1225 Central Ave,Charlotte,NC,28204,the-thirsty-beaver-charlotte,(704) 332-3612,https://s3-media4.fl.yelpcdn.com/bphoto/09JTfgZ0zxlDnIxOe2S5vQ/o.jpg,https://www.yelp.com/biz/the-thirsty-beaver-charlotte?adjust_creative=VGFRDca0eUa0TQtHKuz9aQ&utm_campaign=yelp_api_v3&utm_medium=api_v3_business_search&utm_source=VGFRDca0eUa0TQtHKuz9aQ,108,4.5,-80.817329,35.221305
The Fig Tree Restaurant,1601 E 7th St,Charlotte,NC,28204,the-fig-tree-restaurant-charlotte,(704) 332-3322,https://s3-media2.fl.yelpcdn.com/bphoto/NvV2QJcSb7NsI5z02MDrkg/o.jpg,https://www.yelp.com/biz/the-fig-tree-restaurant-charlotte?adjust_creative=VGFRDca0eUa0TQtHKuz9aQ&utm_campaign=yelp_api_v3&utm_medium=api_v3_business_search&utm_source=VGFRDca0eUa0TQtHKuz9aQ,287,4.5,-80.822557,35.216586
Birdsong Brewing,1016 N Davidson St,Charlotte,NC,28206,birdsong-brewing-charlotte-2,(704) 332-1810,https://s3-media2.fl.yelpcdn.com/bphoto/MkptlG1k-oYoz8uDNiEvpQ/o.jpg,https://www.yelp.com/biz/birdsong-brewing-charlotte-2?adjust_creative=VGFRDca0eUa0TQtHKuz9aQ&utm_campaign=yelp_api_v3&utm_medium=api_v3_business_search&utm_source=VGFRDca0eUa0TQtHKuz9aQ,79,4.5,-80.82650381,35.23067829
The Sanctuary,507 E 36th St,Charlotte,NC,28205,the-sanctuary-charlotte,(704) 331-9797,https://s3-media1.fl.yelpcdn.com/bphoto/qiXvT2_4WNwyEsTNvcsUwQ/o.jpg,https://www.yelp.com/biz/the-sanctuary-charlotte?adjust_creative=VGFRDca0eUa0TQtHKuz9aQ&utm_campaign=yelp_api_v3&utm_medium=api_v3_business_search&utm_source=VGFRDca0eUa0TQtHKuz9aQ,27,4,-80.80403,35.2476
Noda Company Store,3221 Yadkin Ave,Charlotte,NC,28205,noda-company-store-charlotte,(980) 859-0441,https://s3-media2.fl.yelpcdn.com/bphoto/CnrP7mWF90Ezq-Y01kULCQ/o.jpg,https://www.yelp.com/biz/noda-company-store-charlotte?adjust_creative=VGFRDca0eUa0TQtHKuz9aQ&utm_campaign=yelp_api_v3&utm_medium=api_v3_business_search&utm_source=VGFRDca0eUa0TQtHKuz9aQ,32,4.5,-80.80450769,35.24700614
Davidson Street Public House,3220 N Davidson St,Charlotte,NC,28205,davidson-street-public-house-charlotte,(980) 209-9992,https://s3-media1.fl.yelpcdn.com/bphoto/HJpqbpmUS9ve0V8Mnl3qcQ/o.jpg,https://www.yelp.com/biz/davidson-street-public-house-charlotte?adjust_creative=VGFRDca0eUa0TQtHKuz9aQ&utm_campaign=yelp_api_v3&utm_medium=api_v3_business_search&utm_source=VGFRDca0eUa0TQtHKuz9aQ,119,4,-80.804862,35.247287
Sycamore Brewing,2161 Hawkins St,Charlotte,NC,28203,sycamore-brewing-charlotte-2,(704) 910-3821,https://s3-media3.fl.yelpcdn.com/bphoto/lMs5v83R-lJSpTNJ8Pd9Zw/o.jpg,https://www.yelp.com/biz/sycamore-brewing-charlotte-2?adjust_creative=VGFRDca0eUa0TQtHKuz9aQ&utm_campaign=yelp_api_v3&utm_medium=api_v3_business_search&utm_source=VGFRDca0eUa0TQtHKuz9aQ,155,4,-80.86269923,35.20896627
Bonterra Restaurant & Wine Room,1829 Cleveland Ave,Charlotte,NC,28203,bonterra-restaurant-and-wine-room-charlotte,(704) 333-9463,https://s3-media4.fl.yelpcdn.com/bphoto/OXKY-9T83F2juMY7XDIitg/o.jpg,https://www.yelp.com/biz/bonterra-restaurant-and-wine-room-charlotte?adjust_creative=VGFRDca0eUa0TQtHKuz9aQ&utm_campaign=yelp_api_v3&utm_medium=api_v3_business_search&utm_source=VGFRDca0eUa0TQtHKuz9aQ,116,3.5,-80.8571985,35.2100942
The Liberty,1812 South Blvd,Charlotte,NC,28203,the-liberty-charlotte,(704) 332-8830,https://s3-media4.fl.yelpcdn.com/bphoto/KlarpIf50g2sLeTLQWC37Q/o.jpg,https://www.yelp.com/biz/the-liberty-charlotte?adjust_creative=VGFRDca0eUa0TQtHKuz9aQ&utm_campaign=yelp_api_v3&utm_medium=api_v3_business_search&utm_source=VGFRDca0eUa0TQtHKuz9aQ,340,3.5,-80.85848,35.21154
BLT Steak,110 N College St,Charlotte,NC,28202,blt-steak-charlotte-4,(704) 972-4380,https://s3-media1.fl.yelpcdn.com/bphoto/gsqGPcaaD8tkGAc8Qw2X6w/o.jpg,https://www.yelp.com/biz/blt-steak-charlotte-4?adjust_creative=VGFRDca0eUa0TQtHKuz9aQ&utm_campaign=yelp_api_v3&utm_medium=api_v3_business_search&utm_source=VGFRDca0eUa0TQtHKuz9aQ,49,4,-80.841668,35.2262865
Valhalla Pub and Eatery,317 S Church St,Charlotte,NC,28202,valhalla-pub-and-eatery-charlotte,(704) 332-3273,https://s3-media4.fl.yelpcdn.com/bphoto/X28EzkxBzUm6CaMrgo6CzA/o.jpg,https://www.yelp.com/biz/valhalla-pub-and-eatery-charlotte?adjust_creative=VGFRDca0eUa0TQtHKuz9aQ&utm_campaign=yelp_api_v3&utm_medium=api_v3_business_search&utm_source=VGFRDca0eUa0TQtHKuz9aQ,170,4,-80.84682,35.22608
Mortimer's Cafe and Pub,210 E Trade St,Charlotte,NC,28202,mortimers-cafe-and-pub-charlotte,(704) 688-0366,https://s3-media2.fl.yelpcdn.com/bphoto/34cGm6XCSADfa-emjN4ZWw/o.jpg,https://www.yelp.com/biz/mortimers-cafe-and-pub-charlotte?adjust_creative=VGFRDca0eUa0TQtHKuz9aQ&utm_campaign=yelp_api_v3&utm_medium=api_v3_business_search&utm_source=VGFRDca0eUa0TQtHKuz9aQ,155,3.5,-80.84201,35.22538
R R Irish Pub,208 N Tryon St,Charlotte,NC,28202,r-r-irish-pub-charlotte-3,(704) 333-5554,https://s3-media4.fl.yelpcdn.com/bphoto/T1voTKfB8_dDvWWCGPdEvQ/o.jpg,https://www.yelp.com/biz/r%C3%AD-r%C3%A1-irish-pub-charlotte-3?adjust_creative=VGFRDca0eUa0TQtHKuz9aQ&utm_campaign=yelp_api_v3&utm_medium=api_v3_business_search&utm_source=VGFRDca0eUa0TQtHKuz9aQ,250,3.5,-80.84136,35.22791
Connolly's On Fifth,115 E 5th St,Charlotte,NC,28202,connollys-on-fifth-charlotte,(704) 358-9070,https://s3-media4.fl.yelpcdn.com/bphoto/2c1B8G-Dy3P3TSlYM5vk0A/o.jpg,https://www.yelp.com/biz/connollys-on-fifth-charlotte?adjust_creative=VGFRDca0eUa0TQtHKuz9aQ&utm_campaign=yelp_api_v3&utm_medium=api_v3_business_search&utm_source=VGFRDca0eUa0TQtHKuz9aQ,80,3.5,-80.84143829,35.22773743
Que Onda Tacos + Tequila,333 W Trade St,Charlotte,NC,28202,que-onda-tacos-tequila-charlotte-2,(980) 256-2538,https://s3-media4.fl.yelpcdn.com/bphoto/DwZSzYh-FO1qaPtGv_r7gQ/o.jpg,https://www.yelp.com/biz/que-onda-tacos-tequila-charlotte-2?adjust_creative=VGFRDca0eUa0TQtHKuz9aQ&utm_campaign=yelp_api_v3&utm_medium=api_v3_business_search&utm_source=VGFRDca0eUa0TQtHKuz9aQ,84,4,-80.845655,35.229069
Vida Vida,210 E Trade St,Charlotte,NC,28202,vida-vida-charlotte,(704) 971-0762,https://s3-media4.fl.yelpcdn.com/bphoto/2xSzBKjlsi1EnT-3POM_aQ/o.jpg,https://www.yelp.com/biz/vida-vida-charlotte?adjust_creative=VGFRDca0eUa0TQtHKuz9aQ&utm_campaign=yelp_api_v3&utm_medium=api_v3_business_search&utm_source=VGFRDca0eUa0TQtHKuz9aQ,67,3,-80.84211546,35.22586866
Essex Bar & Bistro,101 S Tryon St,Charlotte,NC,28280,essex-bar-and-bistro-charlotte,(980) 406-3857,https://s3-media1.fl.yelpcdn.com/bphoto/6_xeGMIc4fG4FmWHhFflcA/o.jpg,https://www.yelp.com/biz/essex-bar-and-bistro-charlotte?adjust_creative=VGFRDca0eUa0TQtHKuz9aQ&utm_campaign=yelp_api_v3&utm_medium=api_v3_business_search&utm_source=VGFRDca0eUa0TQtHKuz9aQ,208,4,-80.84303,35.22628
Sea Level NC,129 E 5th St,Charlotte,NC,28202,sea-level-nc-charlotte-4,(704) 412-2616,https://s3-media1.fl.yelpcdn.com/bphoto/3R-y2suCSM8jMwxNGN5fYA/o.jpg,https://www.yelp.com/biz/sea-level-nc-charlotte-4?adjust_creative=VGFRDca0eUa0TQtHKuz9aQ&utm_campaign=yelp_api_v3&utm_medium=api_v3_business_search&utm_source=VGFRDca0eUa0TQtHKuz9aQ,199,4,-80.84152557,35.22771344
Olive Garden Italian Restaurant,9421 Pineville Matthews Rd,Pineville,NC,28134,olive-garden-italian-restaurant-pineville-2,(704) 544-2334,https://s3-media2.fl.yelpcdn.com/bphoto/I1uoNwY9a4Pb0pATdLcGIg/o.jpg,https://www.yelp.com/biz/olive-garden-italian-restaurant-pineville-2?adjust_creative=VGFRDca0eUa0TQtHKuz9aQ&utm_campaign=yelp_api_v3&utm_medium=api_v3_business_search&utm_source=VGFRDca0eUa0TQtHKuz9aQ,93,2.5,-80.8770523,35.0864105
Red Lobster,9415 Pineville-Matthews Rd,Pineville,NC,28134,red-lobster-pineville,(704) 541-0021,https://s3-media2.fl.yelpcdn.com/bphoto/Z3f2N8sHbybjZ8fnBw9mGQ/o.jpg,https://www.yelp.com/biz/red-lobster-pineville?adjust_creative=VGFRDca0eUa0TQtHKuz9aQ&utm_campaign=yelp_api_v3&utm_medium=api_v3_business_search&utm_source=VGFRDca0eUa0TQtHKuz9aQ,56,2.5,-80.87705,35.08641
Hwy 55 Burgers Shakes & Fries,516 Mercantile Pl,Fort Mill,SC,29708,hwy-55-burgers-shakes-and-fries-fort-mill,(803) 396-3999,https://s3-media2.fl.yelpcdn.com/bphoto/fTfG73ZQrCy2tPJo96xNHg/o.jpg,https://www.yelp.com/biz/hwy-55-burgers-shakes-and-fries-fort-mill?adjust_creative=VGFRDca0eUa0TQtHKuz9aQ&utm_campaign=yelp_api_v3&utm_medium=api_v3_business_search&utm_source=VGFRDca0eUa0TQtHKuz9aQ,46,3.5,-80.9345249,35.057393
Char Bar No 7,3118 Fincher Farm Rd,Matthews,NC,28105,char-bar-no-7-matthews,(704) 814-0208,https://s3-media1.fl.yelpcdn.com/bphoto/HXiDHXNTZbRPdFlgimUguA/o.jpg,https://www.yelp.com/biz/char-bar-no-7-matthews?adjust_creative=VGFRDca0eUa0TQtHKuz9aQ&utm_campaign=yelp_api_v3&utm_medium=api_v3_business_search&utm_source=VGFRDca0eUa0TQtHKuz9aQ,86,3.5,-80.7295536,35.0831613
The Trail House,6751 Old Monroe Rd,Indian Trail,NC,28079,the-trail-house-indian-trail-2,(704) 776-4655,https://s3-media1.fl.yelpcdn.com/bphoto/9Gbj5h_uRn0dF8rVmDr52A/o.jpg,https://www.yelp.com/biz/the-trail-house-indian-trail-2?adjust_creative=VGFRDca0eUa0TQtHKuz9aQ&utm_campaign=yelp_api_v3&utm_medium=api_v3_business_search&utm_source=VGFRDca0eUa0TQtHKuz9aQ,52,3.5,-80.64575195,35.04915237
The Kilted Buffalo,8625 Townley Rd,Huntersville,NC,28078,the-kilted-buffalo-huntersville,(704) 892-7571,https://s3-media3.fl.yelpcdn.com/bphoto/9XDVzE22hrES66gNj7_qmw/o.jpg,https://www.yelp.com/biz/the-kilted-buffalo-huntersville?adjust_creative=VGFRDca0eUa0TQtHKuz9aQ&utm_campaign=yelp_api_v3&utm_medium=api_v3_business_search&utm_source=VGFRDca0eUa0TQtHKuz9aQ,32,4.5,-80.880368,35.4445608
Pinky's Westside Grill,9818 Gilead Rd,Huntersville,NC,28078,pinkys-westside-grill-huntersville,(704) 727-0142,https://s3-media4.fl.yelpcdn.com/bphoto/mST5T7QtrUt-XyOSA5nONQ/o.jpg,https://www.yelp.com/biz/pinkys-westside-grill-huntersville?adjust_creative=VGFRDca0eUa0TQtHKuz9aQ&utm_campaign=yelp_api_v3&utm_medium=api_v3_business_search&utm_source=VGFRDca0eUa0TQtHKuz9aQ,192,4,-80.86540243,35.40582909
Ass Clown Brewing Company,10620 Bailey Rd,Cornelius,NC,28031,ass-clown-brewing-company-cornelius,(980) 505-0399,https://s3-media1.fl.yelpcdn.com/bphoto/CRxVL4Z0cJ323csgwbCbJg/o.jpg,https://www.yelp.com/biz/ass-clown-brewing-company-cornelius?adjust_creative=VGFRDca0eUa0TQtHKuz9aQ&utm_campaign=yelp_api_v3&utm_medium=api_v3_business_search&utm_source=VGFRDca0eUa0TQtHKuz9aQ,81,4.5,-80.8547775,35.4575619
Primal Brewery,16432 Old Statesville Rd,Huntersville,NC,28078,primal-brewery-huntersville,(704) 947-2920,https://s3-media1.fl.yelpcdn.com/bphoto/Z-ts9wAUaNJGqcD1XY9q9A/o.jpg,https://www.yelp.com/biz/primal-brewery-huntersville?adjust_creative=VGFRDca0eUa0TQtHKuz9aQ&utm_campaign=yelp_api_v3&utm_medium=api_v3_business_search&utm_source=VGFRDca0eUa0TQtHKuz9aQ,43,4,-80.843658,35.437
Chili's,16632 Statesville Rd,Huntersville,NC,28078,chilis-huntersville,(704) 895-0133,https://s3-media2.fl.yelpcdn.com/bphoto/uAwxyMTV2uesySJu2TzOCA/o.jpg,https://www.yelp.com/biz/chilis-huntersville?adjust_creative=VGFRDca0eUa0TQtHKuz9aQ&utm_campaign=yelp_api_v3&utm_medium=api_v3_business_search&utm_source=VGFRDca0eUa0TQtHKuz9aQ,25,3,-80.867182,35.441773
Crafty Beer Guys,114 S Old Statesville Rd,Huntersville,NC,28078,crafty-beer-guys-huntersville,(704) 274-5793,https://s3-media2.fl.yelpcdn.com/bphoto/bBPZzRJQXphKZvEpGhH4Vw/o.jpg,https://www.yelp.com/biz/crafty-beer-guys-huntersville?adjust_creative=VGFRDca0eUa0TQtHKuz9aQ&utm_campaign=yelp_api_v3&utm_medium=api_v3_business_search&utm_source=VGFRDca0eUa0TQtHKuz9aQ,59,4,-80.8429871,35.4090691
Mickey & Mooch,9723 Sam Furr Rd,Huntersville,NC,28078,mickey-and-mooch-huntersville,(704) 895-6654,https://s3-media4.fl.yelpcdn.com/bphoto/gZSDpqXRkYR_R88ZP2EM3A/o.jpg,https://www.yelp.com/biz/mickey-and-mooch-huntersville?adjust_creative=VGFRDca0eUa0TQtHKuz9aQ&utm_campaign=yelp_api_v3&utm_medium=api_v3_business_search&utm_source=VGFRDca0eUa0TQtHKuz9aQ,95,3.5,-80.86478736,35.44370421
Hawthorne's New York Pizza and Bar,14205 Reese Blvd,Huntersville,NC,28078,hawthornes-new-york-pizza-and-bar-huntersville,(704) 992-1661,https://s3-media3.fl.yelpcdn.com/bphoto/spefi2psn9deoS3bPenhBw/o.jpg,https://www.yelp.com/biz/hawthornes-new-york-pizza-and-bar-huntersville?adjust_creative=VGFRDca0eUa0TQtHKuz9aQ&utm_campaign=yelp_api_v3&utm_medium=api_v3_business_search&utm_source=VGFRDca0eUa0TQtHKuz9aQ,62,3.5,-80.86341038,35.40737138
Corkscrew Wine Shoppe & Bar,16916 Birkdale Commons Pkwy,Huntersville,NC,28078,corkscrew-wine-shoppe-and-bar-huntersville-2,(704) 987-0011,https://s3-media2.fl.yelpcdn.com/bphoto/bd3JeUi4v79ZckbAYiJVnw/o.jpg,https://www.yelp.com/biz/corkscrew-wine-shoppe-and-bar-huntersville-2?adjust_creative=VGFRDca0eUa0TQtHKuz9aQ&utm_campaign=yelp_api_v3&utm_medium=api_v3_business_search&utm_source=VGFRDca0eUa0TQtHKuz9aQ,59,4,-80.8789786,35.44575624
Dressler's Restaurant - Birkdale Village,8630 1-A Lindholm Dr,Huntersville,NC,28078,dresslers-restaurant-birkdale-village-huntersville-4,(704) 987-1779,https://s3-media3.fl.yelpcdn.com/bphoto/ReQjNxcn3hTiUkugSY-Lkg/o.jpg,https://www.yelp.com/biz/dresslers-restaurant-birkdale-village-huntersville-4?adjust_creative=VGFRDca0eUa0TQtHKuz9aQ&utm_campaign=yelp_api_v3&utm_medium=api_v3_business_search&utm_source=VGFRDca0eUa0TQtHKuz9aQ,105,4,-80.879821,35.446135
Block Bistro,13812 Cinnabar Pl,Huntersville,NC,28078,block-bistro-huntersville-2,(704) 947-5109,https://s3-media1.fl.yelpcdn.com/bphoto/1CUL0GfrCtlSoc7IE1QrLA/o.jpg,https://www.yelp.com/biz/block-bistro-huntersville-2?adjust_creative=VGFRDca0eUa0TQtHKuz9aQ&utm_campaign=yelp_api_v3&utm_medium=api_v3_business_search&utm_source=VGFRDca0eUa0TQtHKuz9aQ,63,4.5,-80.83381,35.41326
Lucky Dog Bark & Brew,19607 Statesville Rd,Cornelius,NC,28031,lucky-dog-bark-and-brew-cornelius,(704) 896-5550,https://s3-media4.fl.yelpcdn.com/bphoto/9UNVUlCo_4sDlICLIs9V9w/o.jpg,https://www.yelp.com/biz/lucky-dog-bark-and-brew-cornelius?adjust_creative=VGFRDca0eUa0TQtHKuz9aQ&utm_campaign=yelp_api_v3&utm_medium=api_v3_business_search&utm_source=VGFRDca0eUa0TQtHKuz9aQ,34,4.5,-80.87351,35.48192
Hickory Tavern,9526 Birkdale Crossing Dr,Huntersville,NC,28078,hickory-tavern-huntersville,(704) 897-8490,https://s3-media1.fl.yelpcdn.com/bphoto/OhXxDHDZVERCrN7gsUBY5g/o.jpg,https://www.yelp.com/biz/hickory-tavern-huntersville?adjust_creative=VGFRDca0eUa0TQtHKuz9aQ&utm_campaign=yelp_api_v3&utm_medium=api_v3_business_search&utm_source=VGFRDca0eUa0TQtHKuz9aQ,54,3,-80.8855557,35.4434191
D9 Brewing Company,11138-C Treynorth Dr,Cornelius,NC,28031,d9-brewing-company-cornelius-2,(704) 457-9368,https://s3-media2.fl.yelpcdn.com/bphoto/92L8C5buUdGXudninnLQ1Q/o.jpg,https://www.yelp.com/biz/d9-brewing-company-cornelius-2?adjust_creative=VGFRDca0eUa0TQtHKuz9aQ&utm_campaign=yelp_api_v3&utm_medium=api_v3_business_search&utm_source=VGFRDca0eUa0TQtHKuz9aQ,43,4.5,-80.84707,35.46082
131 Main,17830 Statesville Rd,Cornelius,NC,28031,131-main-cornelius,(704) 896-0131,https://s3-media3.fl.yelpcdn.com/bphoto/6f0wWVc0_3MSAep4NoDdcw/o.jpg,https://www.yelp.com/biz/131-main-cornelius?adjust_creative=VGFRDca0eUa0TQtHKuz9aQ&utm_campaign=yelp_api_v3&utm_medium=api_v3_business_search&utm_source=VGFRDca0eUa0TQtHKuz9aQ,234,4,-80.8679784,35.4570629
Fox and Hound Pub,8711 Lindholm Dr,Huntersville,NC,28078,fox-and-hound-pub-huntersville,(704) 895-4504,https://s3-media1.fl.yelpcdn.com/bphoto/trC8kCfy1VytCtOGUMKpdw/o.jpg,https://www.yelp.com/biz/fox-and-hound-pub-huntersville?adjust_creative=VGFRDca0eUa0TQtHKuz9aQ&utm_campaign=yelp_api_v3&utm_medium=api_v3_business_search&utm_source=VGFRDca0eUa0TQtHKuz9aQ,74,2.5,-80.8790474,35.445403
Cafe 100,100 Huntersville Concord Rd,Huntersville,NC,28078,cafe-100-huntersville,(704) 274-5932,https://s3-media3.fl.yelpcdn.com/bphoto/SkNlw54D-xXxIkehKHu4eQ/o.jpg,https://www.yelp.com/biz/cafe-100-huntersville?adjust_creative=VGFRDca0eUa0TQtHKuz9aQ&utm_campaign=yelp_api_v3&utm_medium=api_v3_business_search&utm_source=VGFRDca0eUa0TQtHKuz9aQ,238,4,-80.84214,35.41067
Bottled & Tapped,20124 W Catawba Ave,Cornelius,NC,28031,bottled-and-tapped-cornelius,(980) 231-5305,https://s3-media2.fl.yelpcdn.com/bphoto/DbqiaYk7rnpmJo3BrfLG3Q/o.jpg,https://www.yelp.com/biz/bottled-and-tapped-cornelius?adjust_creative=VGFRDca0eUa0TQtHKuz9aQ&utm_campaign=yelp_api_v3&utm_medium=api_v3_business_search&utm_source=VGFRDca0eUa0TQtHKuz9aQ,11,5,-80.88043,35.48209
The Harp & Crown,19930 W Catawba Ave,Cornelius,NC,28031,the-harp-and-crown-cornelius,(704) 892-9641,https://s3-media2.fl.yelpcdn.com/bphoto/8DcIVJSknZgIXd9SSVZ8MQ/o.jpg,https://www.yelp.com/biz/the-harp-and-crown-cornelius?adjust_creative=VGFRDca0eUa0TQtHKuz9aQ&utm_campaign=yelp_api_v3&utm_medium=api_v3_business_search&utm_source=VGFRDca0eUa0TQtHKuz9aQ,72,4,-80.88414001,35.48115158
Al's Bar & Grille,8321 Magnolia Estates Dr,Cornelius,NC,28031,als-bar-and-grille-cornelius,(704) 987-6582,https://s3-media1.fl.yelpcdn.com/bphoto/0y_shsy6WdPzyVOf_3BLVA/o.jpg,https://www.yelp.com/biz/als-bar-and-grille-cornelius?adjust_creative=VGFRDca0eUa0TQtHKuz9aQ&utm_campaign=yelp_api_v3&utm_medium=api_v3_business_search&utm_source=VGFRDca0eUa0TQtHKuz9aQ,14,3.5,-80.89028679,35.47531486
Fork!,20517 N Main St,Cornelius,NC,28031,fork-cornelius,(704) 655-7465,https://s3-media3.fl.yelpcdn.com/bphoto/k-_1Xz0KX_PZrzDvzjbClg/o.jpg,https://www.yelp.com/biz/fork-cornelius?adjust_creative=VGFRDca0eUa0TQtHKuz9aQ&utm_campaign=yelp_api_v3&utm_medium=api_v3_business_search&utm_source=VGFRDca0eUa0TQtHKuz9aQ,128,4,-80.8591,35.48785
Famous Toastery,101 N Main St,Davidson,NC,28036,famous-toastery-davidson-2,(704) 655-2778,https://s3-media2.fl.yelpcdn.com/bphoto/Vy0MXC_WOgbzlOnG7EV8vA/o.jpg,https://www.yelp.com/biz/famous-toastery-davidson-2?adjust_creative=VGFRDca0eUa0TQtHKuz9aQ&utm_campaign=yelp_api_v3&utm_medium=api_v3_business_search&utm_source=VGFRDca0eUa0TQtHKuz9aQ,193,4,-80.84882,35.4992
Kindred Restaurant,131 N Main St,Davidson,NC,28036,kindred-restaurant-davidson-2,(980) 231-5000,https://s3-media3.fl.yelpcdn.com/bphoto/02KpPkdkcIkKsHbCGqy16Q/o.jpg,https://www.yelp.com/biz/kindred-restaurant-davidson-2?adjust_creative=VGFRDca0eUa0TQtHKuz9aQ&utm_campaign=yelp_api_v3&utm_medium=api_v3_business_search&utm_source=VGFRDca0eUa0TQtHKuz9aQ,263,4.5,-80.84835286,35.4999098
Crafty Burg'r,21726 Catawba Ave,Cornelius,NC,28031,crafty-burgr-cornelius-2,(704) 897-7320,https://s3-media1.fl.yelpcdn.com/bphoto/hQFH4OolmiL4hBUkGD7znA/o.jpg,https://www.yelp.com/biz/crafty-burgr-cornelius-2?adjust_creative=VGFRDca0eUa0TQtHKuz9aQ&utm_campaign=yelp_api_v3&utm_medium=api_v3_business_search&utm_source=VGFRDca0eUa0TQtHKuz9aQ,22,4,-80.85588296,35.48173295
The Pickled Peach,202 S Main St,Davidson,NC,28036,the-pickled-peach-davidson,(704) 765-2190,https://s3-media1.fl.yelpcdn.com/bphoto/t6VVITDOUzUQmS4SOi_T1Q/o.jpg,https://www.yelp.com/biz/the-pickled-peach-davidson?adjust_creative=VGFRDca0eUa0TQtHKuz9aQ&utm_campaign=yelp_api_v3&utm_medium=api_v3_business_search&utm_source=VGFRDca0eUa0TQtHKuz9aQ,92,4.5,-80.849472,35.4981003
FlatIron Kitchen & Taphouse,215 S Main St,Davidson,NC,28036,flatiron-kitchen-and-taphouse-davidson,(704) 237-3246,https://s3-media2.fl.yelpcdn.com/bphoto/xC9s_yYNMBiyN9upcvH3Ig/o.jpg,https://www.yelp.com/biz/flatiron-kitchen-and-taphouse-davidson?adjust_creative=VGFRDca0eUa0TQtHKuz9aQ&utm_campaign=yelp_api_v3&utm_medium=api_v3_business_search&utm_source=VGFRDca0eUa0TQtHKuz9aQ,149,3.5,-80.84931,35.49751
Char-Grill,624 Jetton St,Davidson,NC,28036,char-grill-davidson-2,(704) 896-8710,https://s3-media4.fl.yelpcdn.com/bphoto/RPd5x2Afjxv6pdAqYxL0xA/o.jpg,https://www.yelp.com/biz/char-grill-davidson-2?adjust_creative=VGFRDca0eUa0TQtHKuz9aQ&utm_campaign=yelp_api_v3&utm_medium=api_v3_business_search&utm_source=VGFRDca0eUa0TQtHKuz9aQ,34,3.5,-80.86102724,35.50117671
Lake Norman Cottage,200 N Harbor Pl Dr,Davidson,NC,28036,lake-norman-cottage-davidson,(704) 237-3629,https://s3-media2.fl.yelpcdn.com/bphoto/S7P66myt03z2AkTKe2QkTg/o.jpg,https://www.yelp.com/biz/lake-norman-cottage-davidson?adjust_creative=VGFRDca0eUa0TQtHKuz9aQ&utm_campaign=yelp_api_v3&utm_medium=api_v3_business_search&utm_source=VGFRDca0eUa0TQtHKuz9aQ,23,4,-80.86729431,35.506073
Mac's Speed Shop,19601 Liverpool Pkwy,Cornelius,NC,28031,macs-speed-shop-cornelius,(704) 892-3554,https://s3-media1.fl.yelpcdn.com/bphoto/fHkzNHFxV-bE4WO1fGQYUQ/o.jpg,https://www.yelp.com/biz/macs-speed-shop-cornelius?adjust_creative=VGFRDca0eUa0TQtHKuz9aQ&utm_campaign=yelp_api_v3&utm_medium=api_v3_business_search&utm_source=VGFRDca0eUa0TQtHKuz9aQ,131,3.5,-80.87859344,35.48098755
North Harbor Club,100 N Harbor Pl,Davidson,NC,28036,north-harbor-club-davidson,(704) 896-5559,https://s3-media3.fl.yelpcdn.com/bphoto/mFeD1bLOYMb4Y-VLuxWS0Q/o.jpg,https://www.yelp.com/biz/north-harbor-club-davidson?adjust_creative=VGFRDca0eUa0TQtHKuz9aQ&utm_campaign=yelp_api_v3&utm_medium=api_v3_business_search&utm_source=VGFRDca0eUa0TQtHKuz9aQ,176,4,-80.86682892,35.50636292
The Soda Shop,104 S Main St,Davidson,NC,28036,the-soda-shop-davidson-2,(704) 896-7743,https://s3-media4.fl.yelpcdn.com/bphoto/jqxiVayJ0rHlFH451AHLZQ/o.jpg,https://www.yelp.com/biz/the-soda-shop-davidson-2?adjust_creative=VGFRDca0eUa0TQtHKuz9aQ&utm_campaign=yelp_api_v3&utm_medium=api_v3_business_search&utm_source=VGFRDca0eUa0TQtHKuz9aQ,58,2.5,-80.848732,35.4990425
Choplin's Restaurant,19700 One Norman Blvd,Cornelius,NC,28031,choplins-restaurant-cornelius-2,(704) 892-4800,https://s3-media1.fl.yelpcdn.com/bphoto/dp-ShLNtQeZn0pEjRjGirQ/o.jpg,https://www.yelp.com/biz/choplins-restaurant-cornelius-2?adjust_creative=VGFRDca0eUa0TQtHKuz9aQ&utm_campaign=yelp_api_v3&utm_medium=api_v3_business_search&utm_source=VGFRDca0eUa0TQtHKuz9aQ,105,4,-80.882426,35.480913
Alton's Kitchen & Cocktails,19918 N Cove Rd,Cornelius,NC,28031,altons-kitchen-and-cocktails-cornelius,(704) 655-2727,https://s3-media1.fl.yelpcdn.com/bphoto/5qTbCXPeHlXAtYEEAmjLeA/o.jpg,https://www.yelp.com/biz/altons-kitchen-and-cocktails-cornelius?adjust_creative=VGFRDca0eUa0TQtHKuz9aQ&utm_campaign=yelp_api_v3&utm_medium=api_v3_business_search&utm_source=VGFRDca0eUa0TQtHKuz9aQ,118,4,-80.893923,35.479225