name,address,city,state,zip_code,id,phone,image_url,yelp_url,review_count,rating,lon,lat
Bubbles N' Bows Doggie Salon,717 Stockbridge Dr,Fort Mill,SC,29708,bubbles-n-bows-doggie-salon-fort-mill,(803) 802-7040,https://s3-media3.fl.yelpcdn.com/bphoto/tHEDfCsRAIRp3G1VxOp4vw/o.jpg,https://www.yelp.com/biz/bubbles-n-bows-doggie-salon-fort-mill?adjust_creative=VGFRDca0eUa0TQtHKuz9aQ&utm_campaign=yelp_api_v3&utm_medium=api_v3_business_search&utm_source=VGFRDca0eUa0TQtHKuz9aQ,9,4,-80.9932682,35.0628996
Classic Grooming,3100 Griffith St,Charlotte,NC,28203,classic-grooming-charlotte,(704) 334-9590,https://s3-media1.fl.yelpcdn.com/bphoto/vNbVXda5424FNYUpcgFV8Q/o.jpg,https://www.yelp.com/biz/classic-grooming-charlotte?adjust_creative=VGFRDca0eUa0TQtHKuz9aQ&utm_campaign=yelp_api_v3&utm_medium=api_v3_business_search&utm_source=VGFRDca0eUa0TQtHKuz9aQ,15,4.5,-80.87187,35.20109
The Dog Salon,1318 Central Ave,Charlotte,NC,28205,the-dog-salon-charlotte,(704) 248-0991,https://s3-media4.fl.yelpcdn.com/bphoto/dKlLbkNa3VqKcbDLWkowWw/o.jpg,https://www.yelp.com/biz/the-dog-salon-charlotte?adjust_creative=VGFRDca0eUa0TQtHKuz9aQ&utm_campaign=yelp_api_v3&utm_medium=api_v3_business_search&utm_source=VGFRDca0eUa0TQtHKuz9aQ,67,4,-80.81496,35.219193
Bright Eyes & Bushy Tails,4034 Charlotte Hwy,Lake Wylie,SC,29710,bright-eyes-and-bushy-tails-lake-wylie,(803) 831-7169,https://s3-media4.fl.yelpcdn.com/bphoto/Z3Yq6BjM-Fc4yjOavLX0zw/o.jpg,https://www.yelp.com/biz/bright-eyes-and-bushy-tails-lake-wylie?adjust_creative=VGFRDca0eUa0TQtHKuz9aQ&utm_campaign=yelp_api_v3&utm_medium=api_v3_business_search&utm_source=VGFRDca0eUa0TQtHKuz9aQ,2,3,-81.0425683,35.1083029
Wags In The City Pet Services,6546 Quail Hollow Rd,Charlotte,NC,28210,wags-in-the-city-pet-services-charlotte,(704) 584-9247,https://s3-media3.fl.yelpcdn.com/bphoto/xBOPSKCXniDATn3h1H6q-Q/o.jpg,https://www.yelp.com/biz/wags-in-the-city-pet-services-charlotte?adjust_creative=VGFRDca0eUa0TQtHKuz9aQ&utm_campaign=yelp_api_v3&utm_medium=api_v3_business_search&utm_source=VGFRDca0eUa0TQtHKuz9aQ,27,4.5,-80.8980458,35.1621037
Happy Dog Cafe Boutique & Spa,26 N Main St,Belmont,NC,28012,happy-dog-cafe-boutique-and-spa-belmont,(704) 825-5987,https://s3-media2.fl.yelpcdn.com/bphoto/vz9ol43U_lbPOWFJDDRQiw/o.jpg,https://www.yelp.com/biz/happy-dog-cafe-boutique-and-spa-belmont?adjust_creative=VGFRDca0eUa0TQtHKuz9aQ&utm_campaign=yelp_api_v3&utm_medium=api_v3_business_search&utm_source=VGFRDca0eUa0TQtHKuz9aQ,13,5,-81.03763073,35.24327089
Million Dollar Dog,7206 W Wilkinson Blvd,Belmont,NC,28012,million-dollar-dog-belmont-2,(704) 266-4137,https://s3-media3.fl.yelpcdn.com/bphoto/4n9XxafacVWf1W9y8O9tLw/o.jpg,https://www.yelp.com/biz/million-dollar-dog-belmont-2?adjust_creative=VGFRDca0eUa0TQtHKuz9aQ&utm_campaign=yelp_api_v3&utm_medium=api_v3_business_search&utm_source=VGFRDca0eUa0TQtHKuz9aQ,7,4.5,-81.01844609,35.24744564
Laurel Oak Farm Dog Kennel,16223 Youngblood Rd,Charlotte,NC,28278,laurel-oak-farm-dog-kennel-charlotte,(980) 859-7935,https://s3-media3.fl.yelpcdn.com/bphoto/r1OKvk_K1O1tWE_2L9RHrQ/o.jpg,https://www.yelp.com/biz/laurel-oak-farm-dog-kennel-charlotte?adjust_creative=VGFRDca0eUa0TQtHKuz9aQ&utm_campaign=yelp_api_v3&utm_medium=api_v3_business_search&utm_source=VGFRDca0eUa0TQtHKuz9aQ,4,5,-81.01918793,35.07232666
Club Fetch,2426 Dunavant St,Charlotte,NC,28203,club-fetch-charlotte-2,(980) 299-0019,https://s3-media2.fl.yelpcdn.com/bphoto/4tHYZUcv9cacp-1sJcYiTA/o.jpg,https://www.yelp.com/biz/club-fetch-charlotte-2?adjust_creative=VGFRDca0eUa0TQtHKuz9aQ&utm_campaign=yelp_api_v3&utm_medium=api_v3_business_search&utm_source=VGFRDca0eUa0TQtHKuz9aQ,36,5,-80.86665,35.20492
The Barker Lounge,1719 Montford Dr,Charlotte,NC,28209,the-barker-lounge-charlotte,(704) 522-7537,https://s3-media2.fl.yelpcdn.com/bphoto/KoKc0d3w9x710NkMZoPW3Q/o.jpg,https://www.yelp.com/biz/the-barker-lounge-charlotte?adjust_creative=VGFRDca0eUa0TQtHKuz9aQ&utm_campaign=yelp_api_v3&utm_medium=api_v3_business_search&utm_source=VGFRDca0eUa0TQtHKuz9aQ,62,4.5,-80.84749,35.17105
Whiskers Dog Spa,7816 Fairview Rd,Charlotte,NC,28226,whiskers-dog-spa-charlotte,(704) 366-3553,https://s3-media3.fl.yelpcdn.com/bphoto/9zNVAo3b1NQGq5YRuASVrQ/o.jpg,https://www.yelp.com/biz/whiskers-dog-spa-charlotte?adjust_creative=VGFRDca0eUa0TQtHKuz9aQ&utm_campaign=yelp_api_v3&utm_medium=api_v3_business_search&utm_source=VGFRDca0eUa0TQtHKuz9aQ,19,4,-80.8082128,35.146739
Lucky Puppy Pet Spa,412 Tom Hall St,Fort Mill,SC,29715,lucky-puppy-pet-spa-fort-mill-3,(803) 802-5825,https://s3-media3.fl.yelpcdn.com/bphoto/fwlbrJL5oScF9X1WzQeo-Q/o.jpg,https://www.yelp.com/biz/lucky-puppy-pet-spa-fort-mill-3?adjust_creative=VGFRDca0eUa0TQtHKuz9aQ&utm_campaign=yelp_api_v3&utm_medium=api_v3_business_search&utm_source=VGFRDca0eUa0TQtHKuz9aQ,6,4.5,-80.935806,35.006969
Dogtopia,616 Springbrook Rd,Charlotte,NC,28217,dogtopia-charlotte,(704) 525-4440,https://s3-media3.fl.yelpcdn.com/bphoto/Kw6wBysma225xr-pitK1QQ/o.jpg,https://www.yelp.com/biz/dogtopia-charlotte?adjust_creative=VGFRDca0eUa0TQtHKuz9aQ&utm_campaign=yelp_api_v3&utm_medium=api_v3_business_search&utm_source=VGFRDca0eUa0TQtHKuz9aQ,40,4,-80.88013,35.17373
Dirty Dog Depot,2627 Highway 160 W,Fort Mill,SC,29708,dirty-dog-depot-fort-mill,(803) 548-1301,https://s3-media2.fl.yelpcdn.com/bphoto/rG4sLlZGjBpgr0_pu5VOkQ/o.jpg,https://www.yelp.com/biz/dirty-dog-depot-fort-mill?adjust_creative=VGFRDca0eUa0TQtHKuz9aQ&utm_campaign=yelp_api_v3&utm_medium=api_v3_business_search&utm_source=VGFRDca0eUa0TQtHKuz9aQ,15,3,-80.9923488,35.0534523
Pineville Pet Quarters,12716 Downs Cir,Pineville,NC,28134,pineville-pet-quarters-pineville,(704) 588-5800,,https://www.yelp.com/biz/pineville-pet-quarters-pineville?adjust_creative=VGFRDca0eUa0TQtHKuz9aQ&utm_campaign=yelp_api_v3&utm_medium=api_v3_business_search&utm_source=VGFRDca0eUa0TQtHKuz9aQ,3,5,-80.90117645,35.09243774
Divine K-9 Pet Grooming,890 Armstrong Park Rd,Gastonia,NC,28054,divine-k-9-pet-grooming-gastonia-2,(704) 914-7879,https://s3-media2.fl.yelpcdn.com/bphoto/77nk2wqgBbSu2ryy9JqLkA/o.jpg,https://www.yelp.com/biz/divine-k-9-pet-grooming-gastonia-2?adjust_creative=VGFRDca0eUa0TQtHKuz9aQ&utm_campaign=yelp_api_v3&utm_medium=api_v3_business_search&utm_source=VGFRDca0eUa0TQtHKuz9aQ,3,5,-81.13487244,35.24153137
Archdale Animal Hospital,1319 Archdale Dr,Charlotte,NC,28217,archdale-animal-hospital-charlotte,(704) 552-2333,https://s3-media2.fl.yelpcdn.com/bphoto/R45PI0y8D7Ol9FafDpZXMg/o.jpg,https://www.yelp.com/biz/archdale-animal-hospital-charlotte?adjust_creative=VGFRDca0eUa0TQtHKuz9aQ&utm_campaign=yelp_api_v3&utm_medium=api_v3_business_search&utm_source=VGFRDca0eUa0TQtHKuz9aQ,16,5,-80.87706,35.15312
Midwood Barkery,3100 Monroe Rd,Charlotte,NC,28205,midwood-barkery-charlotte,(980) 395-0498,https://s3-media1.fl.yelpcdn.com/bphoto/u3cbrWzLMACrdlAi4NAL7A/o.jpg,https://www.yelp.com/biz/midwood-barkery-charlotte?adjust_creative=VGFRDca0eUa0TQtHKuz9aQ&utm_campaign=yelp_api_v3&utm_medium=api_v3_business_search&utm_source=VGFRDca0eUa0TQtHKuz9aQ,6,5,-80.80360413,35.20394135
Waggin Tails Pet Inn and Salon,4939 Mt Gallant Rd,Rock Hill,SC,29732,waggin-tails-pet-inn-and-salon-rock-hill,(803) 329-5354,https://s3-media3.fl.yelpcdn.com/bphoto/6qWhg7HjIiXouF8dk6fynA/o.jpg,https://www.yelp.com/biz/waggin-tails-pet-inn-and-salon-rock-hill?adjust_creative=VGFRDca0eUa0TQtHKuz9aQ&utm_campaign=yelp_api_v3&utm_medium=api_v3_business_search&utm_source=VGFRDca0eUa0TQtHKuz9aQ,1,5,-81.07289886,35.00960922
PetSmart,14137 Rivergate Parkway,Charlotte,NC,28273,petsmart-charlotte-4,(704) 587-1198,https://s3-media4.fl.yelpcdn.com/bphoto/hXUKVILfA8inJAGHxUSl1A/o.jpg,https://www.yelp.com/biz/petsmart-charlotte-4?adjust_creative=VGFRDca0eUa0TQtHKuz9aQ&utm_campaign=yelp_api_v3&utm_medium=api_v3_business_search&utm_source=VGFRDca0eUa0TQtHKuz9aQ,12,3,-80.9829203,35.102951
Modern Pet Salon,13643 Providence Rd,Weddington,NC,28104,modern-pet-salon-weddington,(704) 846-0336,https://s3-media3.fl.yelpcdn.com/bphoto/MpXXdWzEtN9Uph9SOu94Sw/o.jpg,https://www.yelp.com/biz/modern-pet-salon-weddington?adjust_creative=VGFRDca0eUa0TQtHKuz9aQ&utm_campaign=yelp_api_v3&utm_medium=api_v3_business_search&utm_source=VGFRDca0eUa0TQtHKuz9aQ,19,5,-80.76252513,35.02390645
Pampered Paws at The Fountains,8025 Ardrey Kell Rd,Charlotte,NC,28277,pampered-paws-at-the-fountains-charlotte-2,(704) 321-7297,https://s3-media3.fl.yelpcdn.com/bphoto/kKs2nuHRcMaHdNVDQBH3lg/o.jpg,https://www.yelp.com/biz/pampered-paws-at-the-fountains-charlotte-2?adjust_creative=VGFRDca0eUa0TQtHKuz9aQ&utm_campaign=yelp_api_v3&utm_medium=api_v3_business_search&utm_source=VGFRDca0eUa0TQtHKuz9aQ,1,5,-80.794,35.04026
Pawtique Holistic Pet Shoppe,12206 Copper Way,Charlotte,NC,28277,pawtique-holistic-pet-shoppe-charlotte,(704) 544-7551,https://s3-media2.fl.yelpcdn.com/bphoto/cuz-508zwz0lWJ_lTW7XmQ/o.jpg,https://www.yelp.com/biz/pawtique-holistic-pet-shoppe-charlotte?adjust_creative=VGFRDca0eUa0TQtHKuz9aQ&utm_campaign=yelp_api_v3&utm_medium=api_v3_business_search&utm_source=VGFRDca0eUa0TQtHKuz9aQ,28,4,-80.844444,35.07068
Piper Glen Animal Hospital,5105 Piper Station Dr,Charlotte,NC,28277,piper-glen-animal-hospital-charlotte,(704) 541-7171,https://s3-media2.fl.yelpcdn.com/bphoto/QwsAOtsg4O3lhm9URhUTqA/o.jpg,https://www.yelp.com/biz/piper-glen-animal-hospital-charlotte?adjust_creative=VGFRDca0eUa0TQtHKuz9aQ&utm_campaign=yelp_api_v3&utm_medium=api_v3_business_search&utm_source=VGFRDca0eUa0TQtHKuz9aQ,14,4.5,-80.813,35.0628
Pet Essentials,7510 Pineville Matthews Rd,Charlotte,NC,28226,pet-essentials-charlotte,(704) 341-9936,https://s3-media4.fl.yelpcdn.com/bphoto/H-paTRtNLeo6UFicMIaFIA/o.jpg,https://www.yelp.com/biz/pet-essentials-charlotte?adjust_creative=VGFRDca0eUa0TQtHKuz9aQ&utm_campaign=yelp_api_v3&utm_medium=api_v3_business_search&utm_source=VGFRDca0eUa0TQtHKuz9aQ,25,4,-80.8470111,35.087875
Pet Supplies Plus,7601 Pineville-Matthews Rd,Charlotte,NC,28226,pet-supplies-plus-charlotte-2,(980) 819-6163,https://s3-media3.fl.yelpcdn.com/bphoto/p5s0MA24ImxxxKgHpVf4HQ/o.jpg,https://www.yelp.com/biz/pet-supplies-plus-charlotte-2?adjust_creative=VGFRDca0eUa0TQtHKuz9aQ&utm_campaign=yelp_api_v3&utm_medium=api_v3_business_search&utm_source=VGFRDca0eUa0TQtHKuz9aQ,28,4,-80.84763112,35.08656934
Dog Gone Beautiful,8318 Pineville Matthews Rd,Charlotte,NC,28226,dog-gone-beautiful-charlotte,(704) 752-6464,https://s3-media3.fl.yelpcdn.com/bphoto/iZRHPzsYyLck1F3fjzbSgQ/o.jpg,https://www.yelp.com/biz/dog-gone-beautiful-charlotte?adjust_creative=VGFRDca0eUa0TQtHKuz9aQ&utm_campaign=yelp_api_v3&utm_medium=api_v3_business_search&utm_source=VGFRDca0eUa0TQtHKuz9aQ,5,4,-80.8602137,35.0876763
Ballantyne Veterinary Clinic,16139 Lancaster Hwy,Charlotte,NC,28277,ballantyne-veterinary-clinic-charlotte,(704) 926-7000,https://s3-media3.fl.yelpcdn.com/bphoto/44qjTR4Q1DyclVi-8QRhsA/o.jpg,https://www.yelp.com/biz/ballantyne-veterinary-clinic-charlotte?adjust_creative=VGFRDca0eUa0TQtHKuz9aQ&utm_campaign=yelp_api_v3&utm_medium=api_v3_business_search&utm_source=VGFRDca0eUa0TQtHKuz9aQ,10,5,-80.8509451,35.0279798
PetSmart,9911 Rea Road,Charlotte,NC,28277,petsmart-charlotte-3,(704) 846-4565,https://s3-media1.fl.yelpcdn.com/bphoto/bBywUPytlTrPP335iA7eiQ/o.jpg,https://www.yelp.com/biz/petsmart-charlotte-3?adjust_creative=VGFRDca0eUa0TQtHKuz9aQ&utm_campaign=yelp_api_v3&utm_medium=api_v3_business_search&utm_source=VGFRDca0eUa0TQtHKuz9aQ,13,3,-80.8045903,35.0352295
All Paws Grooming,8475 Charlotte Hwy,Indian Land,SC,29707,all-paws-grooming-indian-land-2,(803) 548-1001,https://s3-media1.fl.yelpcdn.com/bphoto/cBOnrxnVkGL2NZRA5d3cuQ/o.jpg,https://www.yelp.com/biz/all-paws-grooming-indian-land-2?adjust_creative=VGFRDca0eUa0TQtHKuz9aQ&utm_campaign=yelp_api_v3&utm_medium=api_v3_business_search&utm_source=VGFRDca0eUa0TQtHKuz9aQ,6,3,-80.85466,34.957981
Rea Road Animal Hospital,8100 Williams Pond Ln,Charlotte,NC,28277,rea-road-animal-hospital-charlotte,(704) 544-6313,https://s3-media2.fl.yelpcdn.com/bphoto/SK1E8hy9ZlNwyjG0eZiv9w/o.jpg,https://www.yelp.com/biz/rea-road-animal-hospital-charlotte?adjust_creative=VGFRDca0eUa0TQtHKuz9aQ&utm_campaign=yelp_api_v3&utm_medium=api_v3_business_search&utm_source=VGFRDca0eUa0TQtHKuz9aQ,20,4,-80.8129,35.05427
Fluffs of Luv Pet Care,315 Main St,Pineville,NC,28134,fluffs-of-luv-pet-care-pineville-2,(704) 421-3492,https://s3-media1.fl.yelpcdn.com/bphoto/iiFnZZDxWAT2MILZn3DPPg/o.jpg,https://www.yelp.com/biz/fluffs-of-luv-pet-care-pineville-2?adjust_creative=VGFRDca0eUa0TQtHKuz9aQ&utm_campaign=yelp_api_v3&utm_medium=api_v3_business_search&utm_source=VGFRDca0eUa0TQtHKuz9aQ,20,4.5,-80.8906918,35.0854438
Social Pet,515 Towne Centre Blvd,Pineville,NC,28134,social-pet-pineville,(704) 835-1022,https://s3-media2.fl.yelpcdn.com/bphoto/u6g1A6NUUnghGmEkiWLd7g/o.jpg,https://www.yelp.com/biz/social-pet-pineville?adjust_creative=VGFRDca0eUa0TQtHKuz9aQ&utm_campaign=yelp_api_v3&utm_medium=api_v3_business_search&utm_source=VGFRDca0eUa0TQtHKuz9aQ,14,4,-80.88376,35.08009
Wash & Wag Grooming,,Weddington,NC,28104,wash-and-wag-grooming-weddington,(704) 231-8393,https://s3-media1.fl.yelpcdn.com/bphoto/c80mJGOkD-tcoPZ4eyn7iA/o.jpg,https://www.yelp.com/biz/wash-and-wag-grooming-weddington?adjust_creative=VGFRDca0eUa0TQtHKuz9aQ&utm_campaign=yelp_api_v3&utm_medium=api_v3_business_search&utm_source=VGFRDca0eUa0TQtHKuz9aQ,2,5,-80.7219537,35.0526669
Best Friends Pet Care Charlotte,10301 Feldfarm Ln,Charlotte,NC,28210,best-friends-pet-care-charlotte-charlotte,(704) 752-0504,https://s3-media3.fl.yelpcdn.com/bphoto/FY0VjOwIu1Xz50ly09KGpQ/o.jpg,https://www.yelp.com/biz/best-friends-pet-care-charlotte-charlotte?adjust_creative=VGFRDca0eUa0TQtHKuz9aQ&utm_campaign=yelp_api_v3&utm_medium=api_v3_business_search&utm_source=VGFRDca0eUa0TQtHKuz9aQ,30,4,-80.86408997,35.09332275
Petco,3401 Pineville Matthews Rd,Charlotte,NC,28226,petco-charlotte-5,(704) 541-2473,https://s3-media1.fl.yelpcdn.com/bphoto/XKFcRuUZco4ZSjIi4mFvQg/o.jpg,https://www.yelp.com/biz/petco-charlotte-5?adjust_creative=VGFRDca0eUa0TQtHKuz9aQ&utm_campaign=yelp_api_v3&utm_medium=api_v3_business_search&utm_source=VGFRDca0eUa0TQtHKuz9aQ,17,2.5,-80.78549,35.0961799
Wags & Whiskers,900 Fort Mill Hwy,Fort Mill,SC,29707,wags-and-whiskers-fort-mill,(803) 548-3647,https://s3-media3.fl.yelpcdn.com/bphoto/Acw9uZVHKLBLdW0D4i5tiA/o.jpg,https://www.yelp.com/biz/wags-and-whiskers-fort-mill?adjust_creative=VGFRDca0eUa0TQtHKuz9aQ&utm_campaign=yelp_api_v3&utm_medium=api_v3_business_search&utm_source=VGFRDca0eUa0TQtHKuz9aQ,5,4,-80.88762665,35.00569153
Animal Artistry,10761 Park Rd,Charlotte,NC,28210,animal-artistry-charlotte-2,(704) 543-3120,https://s3-media3.fl.yelpcdn.com/bphoto/EPvq772iFAWwnv_T6IqT3w/o.jpg,https://www.yelp.com/biz/animal-artistry-charlotte-2?adjust_creative=VGFRDca0eUa0TQtHKuz9aQ&utm_campaign=yelp_api_v3&utm_medium=api_v3_business_search&utm_source=VGFRDca0eUa0TQtHKuz9aQ,3,5,-80.87023163,35.09007353
Carolinas Critter Sitters,4717 Sweden Rd,Charlotte,NC,28273,carolinas-critter-sitters-charlotte-5,(704) 970-7297,https://s3-media2.fl.yelpcdn.com/bphoto/7dhNvkC1piAdDoQ4n5-Tyg/o.jpg,https://www.yelp.com/biz/carolinas-critter-sitters-charlotte-5?adjust_creative=VGFRDca0eUa0TQtHKuz9aQ&utm_campaign=yelp_api_v3&utm_medium=api_v3_business_search&utm_source=VGFRDca0eUa0TQtHKuz9aQ,5,4,-80.881511,35.129451
Carolina Veterinary Specialists,2225 Township Rd,Charlotte,NC,28273,carolina-veterinary-specialists-charlotte,(704) 504-9608,https://s3-media2.fl.yelpcdn.com/bphoto/SABnjVjyhPn3DNnIZ7gVrw/o.jpg,https://www.yelp.com/biz/carolina-veterinary-specialists-charlotte?adjust_creative=VGFRDca0eUa0TQtHKuz9aQ&utm_campaign=yelp_api_v3&utm_medium=api_v3_business_search&utm_source=VGFRDca0eUa0TQtHKuz9aQ,27,2.5,-80.94198,35.1325
A Dog's Best Friend,9010 Monroe Rd,Charlotte,NC,28270,a-dogs-best-friend-charlotte-2,(704) 847-9842,https://s3-media2.fl.yelpcdn.com/bphoto/ozQedK0GnDR_cgjNYSI1Iw/o.jpg,https://www.yelp.com/biz/a-dogs-best-friend-charlotte-2?adjust_creative=VGFRDca0eUa0TQtHKuz9aQ&utm_campaign=yelp_api_v3&utm_medium=api_v3_business_search&utm_source=VGFRDca0eUa0TQtHKuz9aQ,12,3.5,-80.74563,35.14745
Tiffany's Pet Salon,11300 Lawyers Rd,Mint Hill,NC,28227,tiffanys-pet-salon-mint-hill,(704) 545-5195,https://s3-media3.fl.yelpcdn.com/bphoto/YDabXWUk9NG3Lf3LZrqSrw/o.jpg,https://www.yelp.com/biz/tiffanys-pet-salon-mint-hill?adjust_creative=VGFRDca0eUa0TQtHKuz9aQ&utm_campaign=yelp_api_v3&utm_medium=api_v3_business_search&utm_source=VGFRDca0eUa0TQtHKuz9aQ,8,4.5,-80.65666,35.17286
Bark 5th Ave Pet Salon,10416 E Independence Blvd,Matthews,NC,28105,bark-5th-ave-matthews,(704) 847-8919,https://s3-media2.fl.yelpcdn.com/bphoto/pPgfQNU33A9ONW_cg0k3Dw/o.jpg,https://www.yelp.com/biz/bark-5th-ave-matthews?adjust_creative=VGFRDca0eUa0TQtHKuz9aQ&utm_campaign=yelp_api_v3&utm_medium=api_v3_business_search&utm_source=VGFRDca0eUa0TQtHKuz9aQ,8,4.5,-80.70696824,35.12730704
Tender Grooming,104 Indian Trl Rd,Indian Trail,NC,28079,tender-grooming-indian-trail,(704) 684-0090,,https://www.yelp.com/biz/tender-grooming-indian-trail?adjust_creative=VGFRDca0eUa0TQtHKuz9aQ&utm_campaign=yelp_api_v3&utm_medium=api_v3_business_search&utm_source=VGFRDca0eUa0TQtHKuz9aQ,3,5,-80.66768892,35.07780343
Camp Bow Wow Matthews,8635 Crown Crescent Ct,Charlotte,NC,28227,camp-bow-wow-matthews-charlotte-2,(704) 708-9663,https://s3-media3.fl.yelpcdn.com/bphoto/JY1aqLppr3T1AtZgnCp9Fg/o.jpg,https://www.yelp.com/biz/camp-bow-wow-matthews-charlotte-2?adjust_creative=VGFRDca0eUa0TQtHKuz9aQ&utm_campaign=yelp_api_v3&utm_medium=api_v3_business_search&utm_source=VGFRDca0eUa0TQtHKuz9aQ,26,4.5,-80.728907,35.141915
Pet Paradise - Matthews,10714 Independence Pointe Pkwy,Matthews,NC,28105,pet-paradise-matthews-matthews,(704) 246-4206,https://s3-media3.fl.yelpcdn.com/bphoto/oRkxCmST1W8cfAyoFzOo5Q/o.jpg,https://www.yelp.com/biz/pet-paradise-matthews-matthews?adjust_creative=VGFRDca0eUa0TQtHKuz9aQ&utm_campaign=yelp_api_v3&utm_medium=api_v3_business_search&utm_source=VGFRDca0eUa0TQtHKuz9aQ,12,4,-80.7071,35.12022
A Barking Boutique,1600 Matthews Mint Hill Rd,Matthews,NC,28105,a-barking-boutique-matthews,(704) 846-1070,https://s3-media1.fl.yelpcdn.com/bphoto/7bhIzuT7FoQU0CdvoPXQJg/o.jpg,https://www.yelp.com/biz/a-barking-boutique-matthews?adjust_creative=VGFRDca0eUa0TQtHKuz9aQ&utm_campaign=yelp_api_v3&utm_medium=api_v3_business_search&utm_source=VGFRDca0eUa0TQtHKuz9aQ,7,4,-80.695755,35.11916351
Matthews Animal Clinic,10600 Monroe Rd,Matthews,NC,28105,matthews-animal-clinic-matthews,(704) 847-9856,,https://www.yelp.com/biz/matthews-animal-clinic-matthews?adjust_creative=VGFRDca0eUa0TQtHKuz9aQ&utm_campaign=yelp_api_v3&utm_medium=api_v3_business_search&utm_source=VGFRDca0eUa0TQtHKuz9aQ,19,4.5,-80.73339081,35.12877274
Sara's Dog Gone Beautiful,1001 Van Buren Ave,Indian Trail,NC,28079,saras-dog-gone-beautiful-indian-trail,(980) 475-2487,,https://www.yelp.com/biz/saras-dog-gone-beautiful-indian-trail?adjust_creative=VGFRDca0eUa0TQtHKuz9aQ&utm_campaign=yelp_api_v3&utm_medium=api_v3_business_search&utm_source=VGFRDca0eUa0TQtHKuz9aQ,5,5,-80.65642621,35.08769029
Miller Animal Hospital,10638 Monroe Rd,Matthews,NC,28105,miller-animal-hospital-matthews,(704) 847-0224,,https://www.yelp.com/biz/miller-animal-hospital-matthews?adjust_creative=VGFRDca0eUa0TQtHKuz9aQ&utm_campaign=yelp_api_v3&utm_medium=api_v3_business_search&utm_source=VGFRDca0eUa0TQtHKuz9aQ,13,4.5,-80.732,35.12767
Aussie Pet Mobile of Charlotte,,Charlotte,NC,28226,aussie-pet-mobile-of-charlotte-charlotte,(704) 394-7111,https://s3-media3.fl.yelpcdn.com/bphoto/uwx-vImaFRi5kUvQnbw1SQ/o.jpg,https://www.yelp.com/biz/aussie-pet-mobile-of-charlotte-charlotte?adjust_creative=VGFRDca0eUa0TQtHKuz9aQ&utm_campaign=yelp_api_v3&utm_medium=api_v3_business_search&utm_source=VGFRDca0eUa0TQtHKuz9aQ,3,3.5,-80.79352534,35.13531841
K9 Hair Design,308 Unionville-Indian Trail Rd,Indian Trail,NC,28079,k9-hair-design-indian-trail,,https://s3-media3.fl.yelpcdn.com/bphoto/qKzJirlyNx6VqJazc2dePg/o.jpg,https://www.yelp.com/biz/k9-hair-design-indian-trail?adjust_creative=VGFRDca0eUa0TQtHKuz9aQ&utm_campaign=yelp_api_v3&utm_medium=api_v3_business_search&utm_source=VGFRDca0eUa0TQtHKuz9aQ,5,5,-80.6503258,35.0760939
Pet Supplies Plus,4732 Sharon Rd,Charlotte,NC,28210,pet-supplies-plus-charlotte-3,(980) 207-0166,https://s3-media1.fl.yelpcdn.com/bphoto/27T396JQOhkwv6xxTGrXGQ/o.jpg,https://www.yelp.com/biz/pet-supplies-plus-charlotte-3?adjust_creative=VGFRDca0eUa0TQtHKuz9aQ&utm_campaign=yelp_api_v3&utm_medium=api_v3_business_search&utm_source=VGFRDca0eUa0TQtHKuz9aQ,7,5,-80.83261,35.14782
Dogs Day Out,4015 Fawnbrook Dr,Indian Trail,NC,28079,dogs-day-out-indian-trail,(704) 708-4820,https://s3-media1.fl.yelpcdn.com/bphoto/8uw4dNYNpt7n2pMtsYxZKw/o.jpg,https://www.yelp.com/biz/dogs-day-out-indian-trail?adjust_creative=VGFRDca0eUa0TQtHKuz9aQ&utm_campaign=yelp_api_v3&utm_medium=api_v3_business_search&utm_source=VGFRDca0eUa0TQtHKuz9aQ,3,3.5,-80.641357,35.064998
Woof Gang Bakery & Grooming SouthPark,4810F Ashley Park Ln,Charlotte,NC,28210,woof-gang-bakery-and-grooming-southpark-charlotte,(980) 355-0989,https://s3-media3.fl.yelpcdn.com/bphoto/EaBNTOE136tIqXnYPnE7iw/o.jpg,https://www.yelp.com/biz/woof-gang-bakery-and-grooming-southpark-charlotte?adjust_creative=VGFRDca0eUa0TQtHKuz9aQ&utm_campaign=yelp_api_v3&utm_medium=api_v3_business_search&utm_source=VGFRDca0eUa0TQtHKuz9aQ,4,5,-80.83045197,35.14648438
PetSmart,9905 E Independence Blvd,Matthews,NC,28105,petsmart-matthews-3,(704) 246-4919,https://s3-media4.fl.yelpcdn.com/bphoto/GzBBVz29F2P6p6Nm-EdYtg/o.jpg,https://www.yelp.com/biz/petsmart-matthews-3?adjust_creative=VGFRDca0eUa0TQtHKuz9aQ&utm_campaign=yelp_api_v3&utm_medium=api_v3_business_search&utm_source=VGFRDca0eUa0TQtHKuz9aQ,7,3.5,-80.7116176,35.1330496
Paws & Perms Pet Salon,13010 Eastfield Rd,Huntersville,NC,28078,paws-and-perms-pet-salon-huntersville,(704) 947-2263,https://s3-media1.fl.yelpcdn.com/bphoto/NsITwNYlxvg9e4olbF7DOw/o.jpg,https://www.yelp.com/biz/paws-and-perms-pet-salon-huntersville?adjust_creative=VGFRDca0eUa0TQtHKuz9aQ&utm_campaign=yelp_api_v3&utm_medium=api_v3_business_search&utm_source=VGFRDca0eUa0TQtHKuz9aQ,20,4.5,-80.7863388,35.3845444
Pawfection Dog Grooming,100 Maxwell Ave,Huntersville,NC,28078,pawfection-dog-grooming-huntersville-2,(704) 657-5811,https://s3-media3.fl.yelpcdn.com/bphoto/1_0aQMgy2_rqd5JWVXW53A/o.jpg,https://www.yelp.com/biz/pawfection-dog-grooming-huntersville-2?adjust_creative=VGFRDca0eUa0TQtHKuz9aQ&utm_campaign=yelp_api_v3&utm_medium=api_v3_business_search&utm_source=VGFRDca0eUa0TQtHKuz9aQ,7,5,-80.841888,35.410461
The Doggie Barber,16022 Old Statesville Rd,Huntersville,NC,28078,the-doggie-barber-huntersville,(704) 948-4040,https://s3-media2.fl.yelpcdn.com/bphoto/k6_2NkKE3JXWlXyWaLzkmg/o.jpg,https://www.yelp.com/biz/the-doggie-barber-huntersville?adjust_creative=VGFRDca0eUa0TQtHKuz9aQ&utm_campaign=yelp_api_v3&utm_medium=api_v3_business_search&utm_source=VGFRDca0eUa0TQtHKuz9aQ,8,5,-80.84279,35.43185
A Styled Pooch,350 George W Liles Pkwy,Concord,NC,28027,a-styled-pooch-concord,(704) 785-9033,https://s3-media1.fl.yelpcdn.com/bphoto/q-W5-n0QCUc3KVKvdmabMg/o.jpg,https://www.yelp.com/biz/a-styled-pooch-concord?adjust_creative=VGFRDca0eUa0TQtHKuz9aQ&utm_campaign=yelp_api_v3&utm_medium=api_v3_business_search&utm_source=VGFRDca0eUa0TQtHKuz9aQ,10,5,-80.6640661,35.4110854
PetSmart,"8150 Ikea Blvd,Suite 25",Charlotte,NC,28262,petsmart-charlotte-9,(704) 208-5264,https://s3-media2.fl.yelpcdn.com/bphoto/IiO2BN5H-Oc6aSutZWg8rg/o.jpg,https://www.yelp.com/biz/petsmart-charlotte-9?adjust_creative=VGFRDca0eUa0TQtHKuz9aQ&utm_campaign=yelp_api_v3&utm_medium=api_v3_business_search&utm_source=VGFRDca0eUa0TQtHKuz9aQ,15,3,-80.7623693,35.2953438
PetSmart,10245 Perimeter Parkway,Charlotte,NC,28216,petsmart-charlotte-5,(704) 599-0475,https://s3-media4.fl.yelpcdn.com/bphoto/YN6b0382kOFICWIn9yBFMg/o.jpg,https://www.yelp.com/biz/petsmart-charlotte-5?adjust_creative=VGFRDca0eUa0TQtHKuz9aQ&utm_campaign=yelp_api_v3&utm_medium=api_v3_business_search&utm_source=VGFRDca0eUa0TQtHKuz9aQ,17,2.5,-80.8539194,35.3451067
Petco,1824 East Arbors Dr,Charlotte,NC,28262,petco-charlotte-3,(704) 971-0050,https://s3-media3.fl.yelpcdn.com/bphoto/4nreNtvzWRf_c4S0fOEV7Q/o.jpg,https://www.yelp.com/biz/petco-charlotte-3?adjust_creative=VGFRDca0eUa0TQtHKuz9aQ&utm_campaign=yelp_api_v3&utm_medium=api_v3_business_search&utm_source=VGFRDca0eUa0TQtHKuz9aQ,10,4,-80.7546443,35.3366117
Pawsitively Pampered Pets,14229 Reese Blvd W,Huntersville,NC,28078,pawsitively-pampered-pets-huntersville,(704) 677-5959,https://s3-media1.fl.yelpcdn.com/bphoto/NOiGaLotp4j1wP5HrlQ9Ww/o.jpg,https://www.yelp.com/biz/pawsitively-pampered-pets-huntersville?adjust_creative=VGFRDca0eUa0TQtHKuz9aQ&utm_campaign=yelp_api_v3&utm_medium=api_v3_business_search&utm_source=VGFRDca0eUa0TQtHKuz9aQ,11,4,-80.863351,35.408153
A Fancy Pup,5076 Highway 49,"Harrisburg,",NC,28075,a-fancy-pup-harrisburg,(704) 455-8322,https://s3-media2.fl.yelpcdn.com/bphoto/_AP-f0PMdn9M_q95YlVsTA/o.jpg,https://www.yelp.com/biz/a-fancy-pup-harrisburg?adjust_creative=VGFRDca0eUa0TQtHKuz9aQ&utm_campaign=yelp_api_v3&utm_medium=api_v3_business_search&utm_source=VGFRDca0eUa0TQtHKuz9aQ,7,3.5,-80.66008702,35.32125962
One White Whisker,,Charlotte,NC,28216,one-white-whisker-charlotte,(704) 231-7337,,https://www.yelp.com/biz/one-white-whisker-charlotte?adjust_creative=VGFRDca0eUa0TQtHKuz9aQ&utm_campaign=yelp_api_v3&utm_medium=api_v3_business_search&utm_source=VGFRDca0eUa0TQtHKuz9aQ,1,5,-80.8549881,35.34205627
VCA Stoney Creek Animal Hospital,626 W Mallard Creek Church Rd,Charlotte,NC,28262,vca-stoney-creek-animal-hospital-charlotte,(704) 717-0616,https://s3-media2.fl.yelpcdn.com/bphoto/gmMLI3bvp5UdlehcYvFJNg/o.jpg,https://www.yelp.com/biz/vca-stoney-creek-animal-hospital-charlotte?adjust_creative=VGFRDca0eUa0TQtHKuz9aQ&utm_campaign=yelp_api_v3&utm_medium=api_v3_business_search&utm_source=VGFRDca0eUa0TQtHKuz9aQ,18,3,-80.73702832,35.32841726
Symmetry Pet Grooming,20842 Catawba Ave,Cornelius,NC,28031,symmetry-pet-grooming-cornelius,(704) 892-8321,https://s3-media4.fl.yelpcdn.com/bphoto/0H9i2sNBQpnSOS74p2udIw/o.jpg,https://www.yelp.com/biz/symmetry-pet-grooming-cornelius?adjust_creative=VGFRDca0eUa0TQtHKuz9aQ&utm_campaign=yelp_api_v3&utm_medium=api_v3_business_search&utm_source=VGFRDca0eUa0TQtHKuz9aQ,6,4.5,-80.86804591,35.48392408
Lotuspaw,5630 Harrisburg Ind Park Dr,Harrisburg,NC,28075,lotuspaw-harrisburg-3,(704) 779-7864,https://s3-media1.fl.yelpcdn.com/bphoto/AX55uP4xQlgG1PnRBghVlg/o.jpg,https://www.yelp.com/biz/lotuspaw-harrisburg-3?adjust_creative=VGFRDca0eUa0TQtHKuz9aQ&utm_campaign=yelp_api_v3&utm_medium=api_v3_business_search&utm_source=VGFRDca0eUa0TQtHKuz9aQ,2,3,-80.66977702,35.31345561
Hight Veterinary Hospital,9528 N Tryon St,Charlotte,NC,28262,hight-veterinary-hospital-charlotte,(704) 595-9377,https://s3-media2.fl.yelpcdn.com/bphoto/Nz0pPrG4mZB5fPwSEiWJZA/o.jpg,https://www.yelp.com/biz/hight-veterinary-hospital-charlotte?adjust_creative=VGFRDca0eUa0TQtHKuz9aQ&utm_campaign=yelp_api_v3&utm_medium=api_v3_business_search&utm_source=VGFRDca0eUa0TQtHKuz9aQ,4,2.5,-80.73897,35.31559
Kibbles & Klips,1836 Oakdale Rd,Charlotte,NC,28216,kibbles-and-klips-charlotte,(704) 393-8944,https://s3-media4.fl.yelpcdn.com/bphoto/bsBjv-vd3AzDGiqqsnrcLA/o.jpg,https://www.yelp.com/biz/kibbles-and-klips-charlotte?adjust_creative=VGFRDca0eUa0TQtHKuz9aQ&utm_campaign=yelp_api_v3&utm_medium=api_v3_business_search&utm_source=VGFRDca0eUa0TQtHKuz9aQ,3,3.5,-80.8957669,35.3011691
Lucky Dog Bark & Brew,2220 Thrift Rd,Charlotte,NC,28208,lucky-dog-bark-and-brew-charlotte-3,(704) 333-4114,https://s3-media3.fl.yelpcdn.com/bphoto/UdluwaFY5HuQq1jSjgVbVA/o.jpg,https://www.yelp.com/biz/lucky-dog-bark-and-brew-charlotte-3?adjust_creative=VGFRDca0eUa0TQtHKuz9aQ&utm_campaign=yelp_api_v3&utm_medium=api_v3_business_search&utm_source=VGFRDca0eUa0TQtHKuz9aQ,48,4.5,-80.8730999,35.2343199
City Dog USA,224 W 32nd St,Charlotte,NC,28206,city-dog-usa-charlotte,(980) 218-0006,https://s3-media1.fl.yelpcdn.com/bphoto/igvVKdkUGXMnEwjqx8W8Nw/o.jpg,https://www.yelp.com/biz/city-dog-usa-charlotte?adjust_creative=VGFRDca0eUa0TQtHKuz9aQ&utm_campaign=yelp_api_v3&utm_medium=api_v3_business_search&utm_source=VGFRDca0eUa0TQtHKuz9aQ,17,4.5,-80.8140312,35.2527743
Granbar Kennels,6700 Orr Rd,Charlotte,NC,28213,granbar-kennels-charlotte,(704) 596-8941,https://s3-media3.fl.yelpcdn.com/bphoto/Asg-FH8opDAaCZ8ALhx-tg/o.jpg,https://www.yelp.com/biz/granbar-kennels-charlotte?adjust_creative=VGFRDca0eUa0TQtHKuz9aQ&utm_campaign=yelp_api_v3&utm_medium=api_v3_business_search&utm_source=VGFRDca0eUa0TQtHKuz9aQ,9,3,-80.752983,35.263881
Tazzy & Boo,19921 Zion Ave,Cornelius,NC,28031,tazzy-and-boo-cornelius-2,(704) 897-7269,https://s3-media4.fl.yelpcdn.com/bphoto/_g3ByVLpHr8--ek2jNzyTA/o.jpg,https://www.yelp.com/biz/tazzy-and-boo-cornelius-2?adjust_creative=VGFRDca0eUa0TQtHKuz9aQ&utm_campaign=yelp_api_v3&utm_medium=api_v3_business_search&utm_source=VGFRDca0eUa0TQtHKuz9aQ,6,4,-80.85681476,35.48001542
Tuscarora Country Club For Dogs,10900 Cruse Rd,Mount Pleasant,NC,28124,tuscarora-country-club-for-dogs-mount-pleasant,(704) 912-4635,https://s3-media1.fl.yelpcdn.com/bphoto/QuSc3-DgH7eCZ4B8_rI1yg/o.jpg,https://www.yelp.com/biz/tuscarora-country-club-for-dogs-mount-pleasant?adjust_creative=VGFRDca0eUa0TQtHKuz9aQ&utm_campaign=yelp_api_v3&utm_medium=api_v3_business_search&utm_source=VGFRDca0eUa0TQtHKuz9aQ,1,5,-80.83754213,35.22613853
Pawsitive Pet Sitting,300 Heflin St,Charlotte,NC,28205,pawsitive-pet-sitting-charlotte,(704) 747-6906,https://s3-media2.fl.yelpcdn.com/bphoto/riYcLtVsWgaQudu7xXgRCg/o.jpg,https://www.yelp.com/biz/pawsitive-pet-sitting-charlotte?adjust_creative=VGFRDca0eUa0TQtHKuz9aQ&utm_campaign=yelp_api_v3&utm_medium=api_v3_business_search&utm_source=VGFRDca0eUa0TQtHKuz9aQ,2,5,-80.80665599,35.20126473
Petco,8070 Concord Mills Blvd,Concord,NC,28027,petco-concord-3,(704) 979-1952,https://s3-media3.fl.yelpcdn.com/bphoto/XMTAMMh_rVjVl8yrx6ZLAQ/o.jpg,https://www.yelp.com/biz/petco-concord-3?adjust_creative=VGFRDca0eUa0TQtHKuz9aQ&utm_campaign=yelp_api_v3&utm_medium=api_v3_business_search&utm_source=VGFRDca0eUa0TQtHKuz9aQ,13,2,-80.7178936,35.371405
K-9 Dezign Dog Grooming and Boarding,4604 Hwy 49 S,Harrisburg,NC,28075,k-9-dezign-dog-grooming-and-boarding-harrisburg-9,(704) 455-3924,https://s3-media1.fl.yelpcdn.com/bphoto/eVp7ZaJvd2KDpAVctx2pPw/o.jpg,https://www.yelp.com/biz/k-9-dezign-dog-grooming-and-boarding-harrisburg-9?adjust_creative=VGFRDca0eUa0TQtHKuz9aQ&utm_campaign=yelp_api_v3&utm_medium=api_v3_business_search&utm_source=VGFRDca0eUa0TQtHKuz9aQ,1,3,-80.65374036,35.3224132
Queen City Petsitting,7418 Edenbridge Ln,Charlotte,NC,28226,queen-city-petsitting-charlotte,(980) 202-2745,https://s3-media1.fl.yelpcdn.com/bphoto/F07bAmaPz9NfZWxWYIk9mQ/o.jpg,https://www.yelp.com/biz/queen-city-petsitting-charlotte?adjust_creative=VGFRDca0eUa0TQtHKuz9aQ&utm_campaign=yelp_api_v3&utm_medium=api_v3_business_search&utm_source=VGFRDca0eUa0TQtHKuz9aQ,37,4.5,-80.7970799,35.1054699
Charlotte Mobile Pet Spa,,Charlotte,NC,28227,charlotte-mobile-pet-spa-charlotte,(704) 576-3565,https://s3-media2.fl.yelpcdn.com/bphoto/rxwGW__oRAEO-11DcKfWYA/o.jpg,https://www.yelp.com/biz/charlotte-mobile-pet-spa-charlotte?adjust_creative=VGFRDca0eUa0TQtHKuz9aQ&utm_campaign=yelp_api_v3&utm_medium=api_v3_business_search&utm_source=VGFRDca0eUa0TQtHKuz9aQ,1,5,-80.65483093,35.18539047
Starshine Pet Sitting,,Charlotte,NC,28227,starshine-pet-sitting-charlotte,(704) 516-4705,https://s3-media2.fl.yelpcdn.com/bphoto/c9cjC7Lh1LPBhRCqQ9n35Q/o.jpg,https://www.yelp.com/biz/starshine-pet-sitting-charlotte?adjust_creative=VGFRDca0eUa0TQtHKuz9aQ&utm_campaign=yelp_api_v3&utm_medium=api_v3_business_search&utm_source=VGFRDca0eUa0TQtHKuz9aQ,2,5,-80.65627,35.18232
Pawsatively Purrfect Grooming,7817 Matthews Mint Hill Rd,Mint Hill,NC,28227,pawsatively-purrfect-grooming-mint-hill,(980) 202-2883,,https://www.yelp.com/biz/pawsatively-purrfect-grooming-mint-hill?adjust_creative=VGFRDca0eUa0TQtHKuz9aQ&utm_campaign=yelp_api_v3&utm_medium=api_v3_business_search&utm_source=VGFRDca0eUa0TQtHKuz9aQ,2,1,-80.6497269,35.1792793
Quail Hollow Veterinary Hospital,8408 Park Rd,Charlotte,NC,28210,quail-hollow-veterinary-hospital-charlotte,(704) 278-8000,https://s3-media3.fl.yelpcdn.com/bphoto/pOH9rInQY4xKZhSPduDlbw/o.jpg,https://www.yelp.com/biz/quail-hollow-veterinary-hospital-charlotte?adjust_creative=VGFRDca0eUa0TQtHKuz9aQ&utm_campaign=yelp_api_v3&utm_medium=api_v3_business_search&utm_source=VGFRDca0eUa0TQtHKuz9aQ,11,5,-80.85672524,35.11701043
K9 Support Charity Dog Wash,616 Springbrook Rd,Charlotte,NC,28217,k9-support-charity-dog-wash-charlotte,(704) 333-3063,https://s3-media4.fl.yelpcdn.com/bphoto/D8a2usm9b-j89W9IrJ_Evw/o.jpg,https://www.yelp.com/biz/k9-support-charity-dog-wash-charlotte?adjust_creative=VGFRDca0eUa0TQtHKuz9aQ&utm_campaign=yelp_api_v3&utm_medium=api_v3_business_search&utm_source=VGFRDca0eUa0TQtHKuz9aQ,2,5,-80.880096,35.173729
Dogs All Day,4240 South Blvd,Charlotte,NC,28209,dogs-all-day-charlotte,(704) 523-3380,https://s3-media2.fl.yelpcdn.com/bphoto/GKarTHDUsuyq1BwTEaY6_A/o.jpg,https://www.yelp.com/biz/dogs-all-day-charlotte?adjust_creative=VGFRDca0eUa0TQtHKuz9aQ&utm_campaign=yelp_api_v3&utm_medium=api_v3_business_search&utm_source=VGFRDca0eUa0TQtHKuz9aQ,26,4,-80.8768082,35.1850319
Canine Cafe,125 Remount Rd,Charlotte,NC,28203,canine-cafe-charlotte,(704) 588-3647,https://s3-media3.fl.yelpcdn.com/bphoto/KsnE87o77EdSg8MJHB2toA/o.jpg,https://www.yelp.com/biz/canine-cafe-charlotte?adjust_creative=VGFRDca0eUa0TQtHKuz9aQ&utm_campaign=yelp_api_v3&utm_medium=api_v3_business_search&utm_source=VGFRDca0eUa0TQtHKuz9aQ,42,4.5,-80.8661599,35.20263
PetSmart,5401 South Blvd Ste 14,Charlotte,NC,28217,petsmart-charlotte-2,(704) 523-0132,https://s3-media1.fl.yelpcdn.com/bphoto/5x_AamnXtVzJLx032mjVuw/o.jpg,https://www.yelp.com/biz/petsmart-charlotte-2?adjust_creative=VGFRDca0eUa0TQtHKuz9aQ&utm_campaign=yelp_api_v3&utm_medium=api_v3_business_search&utm_source=VGFRDca0eUa0TQtHKuz9aQ,20,3,-80.87488661,35.16262124
Canine Carousel Of South Park,4832F Park Rd,Charlotte,NC,28209,canine-carousel-of-south-park-charlotte-2,(704) 525-0023,https://s3-media4.fl.yelpcdn.com/bphoto/WGFTN3FO-DR3A_vV_Yno2w/o.jpg,https://www.yelp.com/biz/canine-carousel-of-south-park-charlotte-2?adjust_creative=VGFRDca0eUa0TQtHKuz9aQ&utm_campaign=yelp_api_v3&utm_medium=api_v3_business_search&utm_source=VGFRDca0eUa0TQtHKuz9aQ,3,3.5,-80.85022441,35.16463656
Bark Street,3930 Park Rd,Charlotte,NC,28209,bark-street-charlotte,(704) 525-9998,https://s3-media4.fl.yelpcdn.com/bphoto/mmhWcVtYLXVlL23LrSViOA/o.jpg,https://www.yelp.com/biz/bark-street-charlotte?adjust_creative=VGFRDca0eUa0TQtHKuz9aQ&utm_campaign=yelp_api_v3&utm_medium=api_v3_business_search&utm_source=VGFRDca0eUa0TQtHKuz9aQ,17,3.5,-80.85155,35.17691
K9 Playland,2139 S Tryon St,Charlotte,NC,28203,k9-playland-charlotte,(704) 525-9778,https://s3-media3.fl.yelpcdn.com/bphoto/yZPmZR5YbqR3E6Of8HVSsA/o.jpg,https://www.yelp.com/biz/k9-playland-charlotte?adjust_creative=VGFRDca0eUa0TQtHKuz9aQ&utm_campaign=yelp_api_v3&utm_medium=api_v3_business_search&utm_source=VGFRDca0eUa0TQtHKuz9aQ,29,4,-80.8665919,35.2105144
Camp Bow Wow Charlotte Metro,4900 Chastain Ave,Charlotte,NC,28217,camp-bow-wow-charlotte-metro-charlotte-2,(704) 527-3647,https://s3-media1.fl.yelpcdn.com/bphoto/L7TsZ4HV52VYna6vN3SAbQ/o.jpg,https://www.yelp.com/biz/camp-bow-wow-charlotte-metro-charlotte-2?adjust_creative=VGFRDca0eUa0TQtHKuz9aQ&utm_campaign=yelp_api_v3&utm_medium=api_v3_business_search&utm_source=VGFRDca0eUa0TQtHKuz9aQ,32,4,-80.88294,35.17552
ENV Pet Spa & Grooming,8824-B Bellhaven Blvd,Charlotte,NC,28214,env-pet-spa-and-grooming-charlotte,(704) 395-9449,https://s3-media3.fl.yelpcdn.com/bphoto/V9ZKeXtiqag8WVtSjfOXrg/o.jpg,https://www.yelp.com/biz/env-pet-spa-and-grooming-charlotte?adjust_creative=VGFRDca0eUa0TQtHKuz9aQ&utm_campaign=yelp_api_v3&utm_medium=api_v3_business_search&utm_source=VGFRDca0eUa0TQtHKuz9aQ,1,5,-80.9385986,35.3079681
Grateful Pets,10317 Rozzelles Ferry Rd,Charlotte,NC,28214,grateful-pets-charlotte,(704) 399-0696,https://s3-media2.fl.yelpcdn.com/bphoto/kFZAJP7KrejwRfqvqXF0_A/o.jpg,https://www.yelp.com/biz/grateful-pets-charlotte?adjust_creative=VGFRDca0eUa0TQtHKuz9aQ&utm_campaign=yelp_api_v3&utm_medium=api_v3_business_search&utm_source=VGFRDca0eUa0TQtHKuz9aQ,9,2.5,-80.9541626,35.3222389
Pet Paradise,2919 Boyer St,Charlotte,NC,28208,pet-paradise-charlotte,(704) 393-3647,https://s3-media1.fl.yelpcdn.com/bphoto/qln6lUoYLXZbyMcADOtPQQ/o.jpg,https://www.yelp.com/biz/pet-paradise-charlotte?adjust_creative=VGFRDca0eUa0TQtHKuz9aQ&utm_campaign=yelp_api_v3&utm_medium=api_v3_business_search&utm_source=VGFRDca0eUa0TQtHKuz9aQ,47,4.5,-80.9220735,35.2294132
Petco,900 Metropolitan Ave,Charlotte,NC,28204,petco-charlotte-6,(704) 916-4047,https://s3-media4.fl.yelpcdn.com/bphoto/ru4Bxa6LMHP4OSuGPx44oA/o.jpg,https://www.yelp.com/biz/petco-charlotte-6?adjust_creative=VGFRDca0eUa0TQtHKuz9aQ&utm_campaign=yelp_api_v3&utm_medium=api_v3_business_search&utm_source=VGFRDca0eUa0TQtHKuz9aQ,4,5,-80.83565581,35.21458716
Discount Pet Supplies,100 N Main St,Mount Holly,NC,28120,discount-pet-supplies-mount-holly,(704) 827-5859,https://s3-media4.fl.yelpcdn.com/bphoto/B3trMHleafNVZvXkZQemxA/o.jpg,https://www.yelp.com/biz/discount-pet-supplies-mount-holly?adjust_creative=VGFRDca0eUa0TQtHKuz9aQ&utm_campaign=yelp_api_v3&utm_medium=api_v3_business_search&utm_source=VGFRDca0eUa0TQtHKuz9aQ,2,3,-81.01583862,35.29795837
Feline Fabulous,1045 Central Ave,Charlotte,NC,28204,feline-fabulous-charlotte,(704) 716-2287,https://s3-media4.fl.yelpcdn.com/bphoto/bHQwvaTsSb1mvfgHD9P3rw/o.jpg,https://www.yelp.com/biz/feline-fabulous-charlotte?adjust_creative=VGFRDca0eUa0TQtHKuz9aQ&utm_campaign=yelp_api_v3&utm_medium=api_v3_business_search&utm_source=VGFRDca0eUa0TQtHKuz9aQ,25,4.5,-80.81959,35.22179
PetSmart,206 S Sharon Amity Rd,Charlotte,NC,28211,petsmart-charlotte-6,(704) 366-3807,https://s3-media3.fl.yelpcdn.com/bphoto/tEL1UL2aRPDk8Jaqta0ZcQ/o.jpg,https://www.yelp.com/biz/petsmart-charlotte-6?adjust_creative=VGFRDca0eUa0TQtHKuz9aQ&utm_campaign=yelp_api_v3&utm_medium=api_v3_business_search&utm_source=VGFRDca0eUa0TQtHKuz9aQ,36,3,-80.8001022,35.1755791
Preferred Pet Ltd,2717 South Blvd,Charlotte,NC,28209,preferred-pet-charlotte,(704) 333-3903,https://s3-media4.fl.yelpcdn.com/bphoto/13B07okIc5CyfTgxNMzGyQ/o.jpg,https://www.yelp.com/biz/preferred-pet-charlotte?adjust_creative=VGFRDca0eUa0TQtHKuz9aQ&utm_campaign=yelp_api_v3&utm_medium=api_v3_business_search&utm_source=VGFRDca0eUa0TQtHKuz9aQ,4,2,-80.8665282,35.2002945
AAA Pet Services,4928 Park Rd,Charlotte,NC,28209,aaa-pet-services-charlotte-3,(704) 522-0677,https://s3-media1.fl.yelpcdn.com/bphoto/p8SSgwjBOp6ReYZ2-28uOQ/o.jpg,https://www.yelp.com/biz/aaa-pet-services-charlotte-3?adjust_creative=VGFRDca0eUa0TQtHKuz9aQ&utm_campaign=yelp_api_v3&utm_medium=api_v3_business_search&utm_source=VGFRDca0eUa0TQtHKuz9aQ,8,4,-80.84967,35.16303
Long Animal Hospital,2523 South Blvd,Charlotte,NC,28203,long-animal-hospital-charlotte-3,(704) 523-2996,https://s3-media2.fl.yelpcdn.com/bphoto/WN_MUEwy-dNFWTIak6gO-g/o.jpg,https://www.yelp.com/biz/long-animal-hospital-charlotte-3?adjust_creative=VGFRDca0eUa0TQtHKuz9aQ&utm_campaign=yelp_api_v3&utm_medium=api_v3_business_search&utm_source=VGFRDca0eUa0TQtHKuz9aQ,84,3.5,-80.8646618,35.2023634
Love and Kisses Pet Sitting,,Indian Trail,NC,28079,love-and-kisses-pet-sitting-indian-trail-2,(704) 763-9857,https://s3-media2.fl.yelpcdn.com/bphoto/-y2wsjJ9-sTym44Py-u3Xg/o.jpg,https://www.yelp.com/biz/love-and-kisses-pet-sitting-indian-trail-2?adjust_creative=VGFRDca0eUa0TQtHKuz9aQ&utm_campaign=yelp_api_v3&utm_medium=api_v3_business_search&utm_source=VGFRDca0eUa0TQtHKuz9aQ,2,5,-80.65417,35.08101
Monroe Road Animal Hospital,3736 Monroe Rd,Charlotte,NC,28205,monroe-road-animal-hospital-charlotte,(704) 333-3336,https://s3-media3.fl.yelpcdn.com/bphoto/pA3-0fkjY_TGqXdwgfgtog/o.jpg,https://www.yelp.com/biz/monroe-road-animal-hospital-charlotte?adjust_creative=VGFRDca0eUa0TQtHKuz9aQ&utm_campaign=yelp_api_v3&utm_medium=api_v3_business_search&utm_source=VGFRDca0eUa0TQtHKuz9aQ,21,4,-80.7955321,35.1989475
Dilworth Dog Grooming,2620 South Tryon St,Charlotte,NC,28203,dilworth-dog-grooming-charlotte,(704) 808-1266,https://s3-media4.fl.yelpcdn.com/bphoto/blQKH_y8AH6UTsOHHS2lbg/o.jpg,https://www.yelp.com/biz/dilworth-dog-grooming-charlotte?adjust_creative=VGFRDca0eUa0TQtHKuz9aQ&utm_campaign=yelp_api_v3&utm_medium=api_v3_business_search&utm_source=VGFRDca0eUa0TQtHKuz9aQ,2,5,-80.87007,35.20532
PetSmart,9515 South Blvd,Charlotte,NC,28273,petsmart-charlotte-7,(704) 405-6967,https://s3-media4.fl.yelpcdn.com/bphoto/2-6VRiqLJYpN4Gu_WEAFvg/o.jpg,https://www.yelp.com/biz/petsmart-charlotte-7?adjust_creative=VGFRDca0eUa0TQtHKuz9aQ&utm_campaign=yelp_api_v3&utm_medium=api_v3_business_search&utm_source=VGFRDca0eUa0TQtHKuz9aQ,4,4.5,-80.8807641,35.1061128
Nana's Pet First Aid & CPR,,Charlotte,NC,28210,nanas-pet-first-aid-and-cpr-charlotte,(704) 302-6171,https://s3-media4.fl.yelpcdn.com/bphoto/oGi3QxBw5lBfffSlkRH58A/o.jpg,https://www.yelp.com/biz/nanas-pet-first-aid-and-cpr-charlotte?adjust_creative=VGFRDca0eUa0TQtHKuz9aQ&utm_campaign=yelp_api_v3&utm_medium=api_v3_business_search&utm_source=VGFRDca0eUa0TQtHKuz9aQ,1,1,-80.85616,35.13016
Reggies Grooming Salon,621 Indian Trail Rd S,Indian Trail,NC,28079,reggies-grooming-salon-indian-trail-2,(704) 821-8291,,https://www.yelp.com/biz/reggies-grooming-salon-indian-trail-2?adjust_creative=VGFRDca0eUa0TQtHKuz9aQ&utm_campaign=yelp_api_v3&utm_medium=api_v3_business_search&utm_source=VGFRDca0eUa0TQtHKuz9aQ,5,5,-80.67794075,35.06875566
Bow-Wow Barber Shop & Kennel,6218 Indian Trl Fairview Rd,Indian Trail,NC,28079,bow-wow-barber-shop-and-kennel-indian-trail-2,(704) 882-8336,https://s3-media4.fl.yelpcdn.com/bphoto/0cfGPJ3xyG4AUkSfHT-a4A/o.jpg,https://www.yelp.com/biz/bow-wow-barber-shop-and-kennel-indian-trail-2?adjust_creative=VGFRDca0eUa0TQtHKuz9aQ&utm_campaign=yelp_api_v3&utm_medium=api_v3_business_search&utm_source=VGFRDca0eUa0TQtHKuz9aQ,3,5,-80.625818,35.101982
Carolina Pet Pantry,323 Unionville Indian Trail Rd,Indian Trail,NC,28079,carolina-pet-pantry-indian-trail-3,(704) 882-1525,https://s3-media4.fl.yelpcdn.com/bphoto/_AsrfzMdxsw_YiuPEX0TeQ/o.jpg,https://www.yelp.com/biz/carolina-pet-pantry-indian-trail-3?adjust_creative=VGFRDca0eUa0TQtHKuz9aQ&utm_campaign=yelp_api_v3&utm_medium=api_v3_business_search&utm_source=VGFRDca0eUa0TQtHKuz9aQ,1,5,-80.6501126,35.0765149
Pack Pet Resort,101 Post Office Dr,Indian Trail,NC,28079,pack-pet-resort-indian-trail,(704) 839-0530,https://s3-media2.fl.yelpcdn.com/bphoto/PuEJb6nftWjbNUnJEQKOQA/o.jpg,https://www.yelp.com/biz/pack-pet-resort-indian-trail?adjust_creative=VGFRDca0eUa0TQtHKuz9aQ&utm_campaign=yelp_api_v3&utm_medium=api_v3_business_search&utm_source=VGFRDca0eUa0TQtHKuz9aQ,3,4.5,-80.6592,35.0790999
Puppy Luv Dog Grooming,18505 Statesville Rd,Cornelius,NC,28031,puppy-luv-dog-grooming-cornelius,(704) 896-0400,https://s3-media4.fl.yelpcdn.com/bphoto/O2lil4R5Bd2RH66NfQ5InA/o.jpg,https://www.yelp.com/biz/puppy-luv-dog-grooming-cornelius?adjust_creative=VGFRDca0eUa0TQtHKuz9aQ&utm_campaign=yelp_api_v3&utm_medium=api_v3_business_search&utm_source=VGFRDca0eUa0TQtHKuz9aQ,7,3.5,-80.87307,35.46587
Lucky Dog Bark & Brew,19607 Statesville Rd,Cornelius,NC,28031,lucky-dog-bark-and-brew-cornelius,(704) 896-5550,https://s3-media4.fl.yelpcdn.com/bphoto/9UNVUlCo_4sDlICLIs9V9w/o.jpg,https://www.yelp.com/biz/lucky-dog-bark-and-brew-cornelius?adjust_creative=VGFRDca0eUa0TQtHKuz9aQ&utm_campaign=yelp_api_v3&utm_medium=api_v3_business_search&utm_source=VGFRDca0eUa0TQtHKuz9aQ,34,4.5,-80.87351,35.48192
Pet Paradise Lake Norman,15020 Brown Mill,Huntersville,NC,28078,pet-paradise-lake-norman-huntersville,(704) 875-8668,https://s3-media1.fl.yelpcdn.com/bphoto/7k8z_Ef9YbnWfbB2eYqmow/o.jpg,https://www.yelp.com/biz/pet-paradise-lake-norman-huntersville?adjust_creative=VGFRDca0eUa0TQtHKuz9aQ&utm_campaign=yelp_api_v3&utm_medium=api_v3_business_search&utm_source=VGFRDca0eUa0TQtHKuz9aQ,12,4,-80.913817,35.4268349
Impeccable Paws,19930 W Catawba Ave,Cornelius,NC,28031,impeccable-paws-cornelius,(704) 892-6330,https://s3-media3.fl.yelpcdn.com/bphoto/FOIjtFgIt5t8TcBW4H1C4g/o.jpg,https://www.yelp.com/biz/impeccable-paws-cornelius?adjust_creative=VGFRDca0eUa0TQtHKuz9aQ&utm_campaign=yelp_api_v3&utm_medium=api_v3_business_search&utm_source=VGFRDca0eUa0TQtHKuz9aQ,24,3,-80.88414001,35.48115158
Purrfect Paws,18920 Statesville Rd,Cornelius,NC,28031,purrfect-paws-cornelius,(704) 896-6770,https://s3-media2.fl.yelpcdn.com/bphoto/j1XdrctlcwKFBQpyy1pmNQ/o.jpg,https://www.yelp.com/biz/purrfect-paws-cornelius?adjust_creative=VGFRDca0eUa0TQtHKuz9aQ&utm_campaign=yelp_api_v3&utm_medium=api_v3_business_search&utm_source=VGFRDca0eUa0TQtHKuz9aQ,1,5,-80.87364197,35.4720726
Sophisticuts Dog Salon,19621 W Catawba Ave,Cornelius,NC,28031,sophisticuts-dog-salon-cornelius,(704) 895-4222,https://s3-media1.fl.yelpcdn.com/bphoto/UkHeNqrwIyO1K4QzwybJkQ/o.jpg,https://www.yelp.com/biz/sophisticuts-dog-salon-cornelius?adjust_creative=VGFRDca0eUa0TQtHKuz9aQ&utm_campaign=yelp_api_v3&utm_medium=api_v3_business_search&utm_source=VGFRDca0eUa0TQtHKuz9aQ,11,4,-80.89117,35.48084
Petco,10017 Biddick Ln,Huntersville,NC,28078,petco-huntersville,(704) 895-7643,https://s3-media2.fl.yelpcdn.com/bphoto/zO4kc5cy9tQ-1LTBrifpdg/o.jpg,https://www.yelp.com/biz/petco-huntersville?adjust_creative=VGFRDca0eUa0TQtHKuz9aQ&utm_campaign=yelp_api_v3&utm_medium=api_v3_business_search&utm_source=VGFRDca0eUa0TQtHKuz9aQ,14,3,-80.8573761,35.4434013
Lake Norman Pet Grooming,18900 Statesville Rd,Cornelius,NC,28031,lake-norman-pet-grooming-cornelius,(704) 895-0750,https://s3-media1.fl.yelpcdn.com/bphoto/NlJeAnj6YishkXhubBaCuw/o.jpg,https://www.yelp.com/biz/lake-norman-pet-grooming-cornelius?adjust_creative=VGFRDca0eUa0TQtHKuz9aQ&utm_campaign=yelp_api_v3&utm_medium=api_v3_business_search&utm_source=VGFRDca0eUa0TQtHKuz9aQ,7,4.5,-80.8735504,35.4715309
Carolinas Veterinary Care Clinic,10110 Northcross Center Ct,Huntersville,NC,28078,carolinas-veterinary-care-clinic-huntersville-2,(704) 439-0600,https://s3-media2.fl.yelpcdn.com/bphoto/qpx1Ph48wHkbdbxZtbEsVA/o.jpg,https://www.yelp.com/biz/carolinas-veterinary-care-clinic-huntersville-2?adjust_creative=VGFRDca0eUa0TQtHKuz9aQ&utm_campaign=yelp_api_v3&utm_medium=api_v3_business_search&utm_source=VGFRDca0eUa0TQtHKuz9aQ,12,3,-80.860149,35.443109
PetSmart,8301 Magnolia Estates Dr Unit,Cornelius,NC,28031,petsmart-cornelius,(704) 765-3048,https://s3-media2.fl.yelpcdn.com/bphoto/1ujsQ2FamvUVGX4KrpKXzA/o.jpg,https://www.yelp.com/biz/petsmart-cornelius?adjust_creative=VGFRDca0eUa0TQtHKuz9aQ&utm_campaign=yelp_api_v3&utm_medium=api_v3_business_search&utm_source=VGFRDca0eUa0TQtHKuz9aQ,7,2.5,-80.88942,35.47562
Totalbond Veterinary Hospital at Davidson,260 Griffith St,Davidson,NC,28036,totalbond-veterinary-hospital-at-davidson-davidson,(704) 892-1992,https://s3-media2.fl.yelpcdn.com/bphoto/y3A3xsrm9HIL9eTDaKMd5w/o.jpg,https://www.yelp.com/biz/totalbond-veterinary-hospital-at-davidson-davidson?adjust_creative=VGFRDca0eUa0TQtHKuz9aQ&utm_campaign=yelp_api_v3&utm_medium=api_v3_business_search&utm_source=VGFRDca0eUa0TQtHKuz9aQ,1,5,-80.84955597,35.50273514
Bone-ified Dog,20901 Torrence Chapel Rd,Cornelius,NC,28031,bone-ified-dog-cornelius,(704) 987-7770,,https://www.yelp.com/biz/bone-ified-dog-cornelius?adjust_creative=VGFRDca0eUa0TQtHKuz9aQ&utm_campaign=yelp_api_v3&utm_medium=api_v3_business_search&utm_source=VGFRDca0eUa0TQtHKuz9aQ,1,1,-80.8763199,35.4874687
The Dog House Pet Grooming Spa,115 Plantation Ridge Dr,Mooresville,NC,28117,the-dog-house-pet-grooming-spa-mooresville,(704) 664-7698,https://s3-media3.fl.yelpcdn.com/bphoto/ZcLgKUtOYgKOjT4osn-75Q/o.jpg,https://www.yelp.com/biz/the-dog-house-pet-grooming-spa-mooresville?adjust_creative=VGFRDca0eUa0TQtHKuz9aQ&utm_campaign=yelp_api_v3&utm_medium=api_v3_business_search&utm_source=VGFRDca0eUa0TQtHKuz9aQ,5,5,-80.8864369,35.5891348
Barkabillies Grooming Saloon,105 - B Denver Business Park Dr,Mooresville,NC,28115,barkabillies-grooming-saloon-mooresville,(704) 660-2275,https://s3-media2.fl.yelpcdn.com/bphoto/FUdcMblRdlUss5DJ2W205w/o.jpg,https://www.yelp.com/biz/barkabillies-grooming-saloon-mooresville?adjust_creative=VGFRDca0eUa0TQtHKuz9aQ&utm_campaign=yelp_api_v3&utm_medium=api_v3_business_search&utm_source=VGFRDca0eUa0TQtHKuz9aQ,4,5,-80.8064728,35.6068611
Serenite Pet Salon,138 Market Place Ave,Mooresville,NC,28117,serenite-pet-salon-mooresville-2,(704) 696-2622,https://s3-media3.fl.yelpcdn.com/bphoto/ezgnnLjKq2Pq8YZSnx61cg/o.jpg,https://www.yelp.com/biz/serenite-pet-salon-mooresville-2?adjust_creative=VGFRDca0eUa0TQtHKuz9aQ&utm_campaign=yelp_api_v3&utm_medium=api_v3_business_search&utm_source=VGFRDca0eUa0TQtHKuz9aQ,1,5,-80.8763842,35.5864629
Pampered Pets Inn,2993 Charlotte Hwy 21,Mooresville,NC,28117,pampered-pets-inn-mooresville,(704) 663-3733,https://s3-media1.fl.yelpcdn.com/bphoto/51KHgJ6oDws_dBxfdvQjiA/o.jpg,https://www.yelp.com/biz/pampered-pets-inn-mooresville?adjust_creative=VGFRDca0eUa0TQtHKuz9aQ&utm_campaign=yelp_api_v3&utm_medium=api_v3_business_search&utm_source=VGFRDca0eUa0TQtHKuz9aQ,6,4,-80.84444427,35.5698967